,resto_id,name,cuisine_type,is_official,lat,long,location,average_price,overall_rating,rating_rasa,rating_suasana,rating_harga_rasa,rating_pelayanan,rating_kebersihan,open_time,payment_method,wifi,delivery,smoking_area,outdor_area,24hour,100%_halal,VIP_room,reservation,parking_area,alcohol,vegetarian
0,162502051603287,Isshin,[ Jepang ],False,-6.177049,106.791359," Central Park, Lantai Lower Ground Jl. Letjen S. Parman, Slipi, Jakarta Barat ", Rp. 100.000 - Rp. 200.000 /orang ,4.44,4.7,4.3,4.1,4.7,4.5,"Senin - Jumat (11:00 - 21:00), Sabtu - Minggu (10:00 - 21:00)","Tunai,Visa,Master,Debet,Go-pay",yes,no,no,no,no,yes,no,yes,yes,no,no
1,1625020527504902,Crematology Coffee Roasters,[ Kafe ],False,-6.188346,106.738013," PX Pavilion, Lantai Ground Jl. Puri Indah Boulevard Blok U1, Puri, Jakarta Barat ", Rp. 100.000 - Rp. 200.000 /orang ,4.19,4.1,4.7,3.7,4.2,4.2,"Senin - Kamis (12:00 - 20:00), Jumat - Minggu (12:00 - 21:00)","Tunai,Visa,Master,Debet",yes,no,yes,yes,no,yes,no,yes,yes,no,no
2,1625020536432033,Padang Merdeka,[ Indonesia ],False,-6.136068,106.814017," Jl. Lada No. 1, Kota, Jakarta Barat ", Rp. 50.000 - Rp. 100.000 /orang ,4.23,4.4,4.2,4.2,4.1,4.3,Senin - Minggu (10:00 - 22:00),"Tunai,Visa,Master,Debet",yes,no,yes,no,no,yes,no,yes,yes,no,no
3,1625020549191972,Kembang Tandjoeng,[ Indonesia ],True,-6.175443,106.803211," Griya Batik Semar, Lantai 1 Jl. Tomang Raya No. 54, Tomang, Jakarta Barat ", Rp. 50.000 - Rp. 100.000 /orang ,4.22,4.2,4.5,4.0,4.1,4.4,Senin - Minggu (10:00 - 22:00),"Tunai,Visa,Master,Debet",yes,no,yes,no,no,yes,yes,yes,yes,no,no
4,1625020558941161,BAWBAW,[ Jepang ],True,-6.16968,106.766835," Jl. Taman Ratu Indah Blok AA2 No. 33, Green Ville, Jakarta Barat ", Rp. 50.000 - Rp. 100.000 /orang ,4.31,4.3,4.7,3.9,4.2,4.3,Senin - Minggu (10:00 - 22:00),"Tunai,Visa,Master,Debet,Go-pay,Ovo,Dana",yes,no,yes,no,no,yes,yes,yes,yes,yes,no
5,1625020566912945,Gyu Kaku,[ Jepang ],False,-6.174832,106.789932," Neo Soho Mall, Lantai Lower Ground Jl. Letjen S. Parman, Slipi, Jakarta Barat ", Di atas Rp. 200.000 /orang ,4.2,4.6,4.1,3.9,4.2,4.3,Senin - Minggu (10:00 - 21:00),"Tunai,Visa,Master,Debet,Go-pay,Ovo",yes,no,no,no,no,yes,no,yes,yes,yes,no
6,1625020577910745,Din Tai Fung Chef's Table,[ China ],True,-6.188299,106.734145," Puri Indah Mall, Lantai 2 Jl. Puri Indah Raya, Puri, Jakarta Barat ", Rp. 100.000 - Rp. 200.000 /orang ,4.27,4.7,4.1,4.1,4.3,4.3,"Senin - Rabu (10:30 - 22:00), Kamis - Minggu (10:00 - 22:00)","Tunai,Visa,Master,Debet",no,no,no,no,no,no,yes,yes,yes,yes,no
7,1625020582842741,Bopan Coffee & Fruit Tee,[ Kafe ],False,-6.1467481,106.7010758," Ruko Seventh Esplanade, Blok B02 No. 7 Jl. Citra Garden 7, Kalideres, Jakarta Barat ", Di bawah Rp. 50.000 /orang ,4.49,4.3,4.2,4.6,4.7,4.7,Senin - Minggu (10:00 - 19:30),"Tunai,Visa,Master,Debet,Go-pay,Ovo,Dana",yes,no,yes,yes,no,yes,no,yes,yes,no,no
8,1625020587933522,Acaraki,[ Kafe ],False,-6.135984,106.812302," Gedung Kerta Niaga 3 Jl. Kali Besar Timur, Kota, Jakarta Barat ", Rp. 50.000 - Rp. 100.000 /orang ,4.29,4.1,4.5,4.1,4.4,4.3,Senin - Minggu (10:00 - 22:00),"Tunai,Debet",yes,no,no,no,no,yes,no,no,no,no,no
9,1625020593988086,Yakiniku Like,[ Jepang ],False,-6.18785,106.738747," St Moritz Mall (Lippo Mall Puri), Lantai Lower Ground, Takeshita Street Jl. Puri Indah Boulevard Blok U1, Puri, Jakarta Barat ", Rp. 100.000 - Rp. 200.000 /orang ,4.21,4.4,4.0,4.3,4.1,4.4,Senin - Minggu (10:00 - 22:00),"Tunai,Visa,Master,Debet",no,no,no,no,no,yes,no,no,yes,no,no
10,1625020602780666,Chateraise,[ Toko Kue ],False,-6.177673,106.791106," Central Park, Lantai Lower Ground Jl. Letjen S. Parman, Slipi, Jakarta Barat ", Rp. 50.000 - Rp. 100.000 /orang ,4.08,4.4,4.1,3.6,4.0,4.2,Senin - Minggu (10:00 - 22:00),"Tunai,Visa,Master,Debet",no,no,no,no,no,yes,no,yes,yes,no,no
11,1625020619246725,Olive Tree House of Croissants,[ Kafe ],False,-6.174218,106.744113," Komplek Taman Permata Buana, Blok M4 No. 6 Jl. Pulau Sebaru, Puri, Jakarta Barat ", Rp. 50.000 - Rp. 100.000 /orang ,4.23,4.2,4.5,4.2,3.9,4.3,Senin - Minggu (08:00 - 19:00),"Tunai,Debet",no,no,yes,yes,no,no,no,no,yes,no,no
12,162502062727153,Union,[ Barat ],False,-6.177673,106.791106," Central Park, Tribeca Park, Lantai Ground Jl. Letjen S. Parman, Slipi, Jakarta Barat ", Rp. 100.000 - Rp. 200.000 /orang ,4.09,4.5,4.2,3.6,4.0,4.2,"Senin - Kamis (10:00 - 23:00), Jumat - Sabtu (10:00 - 24:00), Minggu (10:00 - 23:00)","Tunai,Visa,Master,Debet",yes,no,yes,yes,no,no,no,yes,yes,yes,no
13,1625020636249412,Haidilao Hot Pot,[ China ],False,-6.177962,106.792517," Mall Taman Anggrek, Lantai 1 Jl. Letjen S. Parman, Slipi, Jakarta Barat ", Di atas Rp. 200.000 /orang ,4.25,4.0,4.2,3.8,4.8,4.5,Senin - Minggu (11:00 - 20:00),"Tunai,Visa,Master,Debet",yes,no,no,no,no,no,no,no,yes,yes,no
14,1625020644674999,Soto Betawi H. Mamat,[ Indonesia ],False,-6.1761,106.799271," Jl. Mandala Raya No. 10, Tomang, Jakarta Barat ", Di bawah Rp. 50.000 /orang ,4.2,4.9,3.9,4.3,4.1,3.9,Senin - Minggu (08:00 - 21:00),"Tunai,Debet",no,no,yes,yes,no,yes,no,yes,yes,no,no
15,1625020649039393,Genki Sushi,[ Jepang ],False,-6.177264,106.790625," Central Park, Lantai Upper Ground, SOGO Jl. Letjen S. Parman, Slipi, Jakarta Barat ", Rp. 100.000 - Rp. 200.000 /orang ,4.11,4.1,4.3,3.6,4.2,4.3,Senin - Minggu (10:00 - 22:00),"Tunai,Visa,Master,Debet",no,no,no,no,no,no,no,no,yes,no,no
16,1625020663208837,PanMee Mangga Besar,[ China ],True,-6.14996,106.824694," Jl. Mangga Besar VI No. 7, Mangga Besar, Jakarta Barat ", Rp. 50.000 - Rp. 100.000 /orang ,4.2,4.3,4.1,4.1,4.3,4.3,Senin - Minggu (08:00 - 22:00),"Tunai,Visa,Master,Debet,Go-pay,Ovo,Dana",yes,no,yes,yes,no,yes,yes,yes,yes,yes,no
17,1625020672358226,Chroma Coffee and Eatery,[ Kafe ],True,-6.187347,106.765655," Taman Kedoya Baru Jl. Kedoya Palma Raya Blok FC No. 1, Kedoya, Jakarta Barat ", Rp. 50.000 - Rp. 100.000 /orang ,4.08,4.0,4.3,3.8,4.1,4.1,"Selasa - Jumat (11:00 - 20:00), Sabtu - Minggu (09:00 - 20:00), Senin Tutup","Tunai,Visa,Master,Debet,Ovo",yes,no,yes,yes,no,no,yes,yes,yes,no,no
18,1625020681292003,Bun King Resto & Coffee,[ Kafe ],True,-6.16149,106.807889," Jl. K. H. Moh. Mansyur No. 57, Jembatan Lima, Jakarta Barat ", Rp. 50.000 - Rp. 100.000 /orang ,4.46,4.3,4.4,4.4,4.7,4.4,Senin - Minggu (11:00 - 21:00),"Tunai,Visa,Master,Debet",yes,no,yes,yes,no,yes,yes,yes,yes,no,no
19,1625020686002296,Coffee Dia,[ Kafe ],True,-6.173197,106.780758," Rumah Segi Jl. Tanjung Duren Utara V No. 246, Tanjung Duren, Jakarta Barat ", Di bawah Rp. 50.000 /orang ,4.14,4.0,4.4,3.7,4.4,4.1,Senin - Minggu (10:00 - 18:00),"Tunai,Dana",yes,no,yes,yes,no,yes,no,yes,yes,no,no
20,1625020692525347,Song Fa Bak Kut Teh,[ China ],False,-6.177673,106.791106," Central Park, Lantai 3 Jl. Letjen S. Parman, Slipi, Jakarta Barat ", Rp. 50.000 - Rp. 100.000 /orang ,4.05,4.7,3.7,3.7,4.0,4.1,Senin - Minggu (10:00 - 22:00),"Tunai,Visa,Master,Debet",no,no,yes,yes,no,no,no,yes,yes,no,no
21,1625020704503106,Kintan Buffet,[ Jepang ],False,-6.177673,106.791106," Central Park, Lantai 1 Jl. Letjen S. Parman, Slipi, Jakarta Barat ", Di atas Rp. 200.000 /orang ,4.11,4.3,4.1,4.0,4.2,4.0,Senin - Minggu (10:00 - 21:00),"Tunai,Visa,Master,Debet,Go-pay,Ovo,Dana",no,no,no,no,no,yes,no,yes,yes,no,no
22,162502071241474,Haiseafood,[ Indonesia ],False,-6.178374662204403,106.79," Jl. Tomang Raya No. 7, Tomang, Jakarta Barat ", Rp. 100.000 - Rp. 200.000 /orang ,4.75,4.8,4.8,4.5,4.8,5.0,Senin - Minggu (11:00 - 20:00),"Tunai,Debet,Go-pay,Ovo",yes,yes,no,yes,no,yes,yes,yes,yes,no,no
23,1625020715842332,Sushi Hiro,[ Jepang ],False,-6.174832,106.789932," Neo Soho Mall, Lantai Upper Ground Jl. Letjen S. Parman, Slipi, Jakarta Barat ", Rp. 100.000 - Rp. 200.000 /orang ,4.01,4.3,4.2,3.4,3.9,4.2,Senin - Minggu (10:00 - 22:00),"Tunai,Visa,Master,Debet",yes,no,no,no,no,no,no,no,yes,yes,no
24,1625020732116264,Born Ga,[ Korea ],False,-6.174832,106.789932," Neo Soho Mall, Lantai Lower Ground Jl. Letjen S. Parman, Slipi, Jakarta Barat ", Rp. 100.000 - Rp. 200.000 /orang ,4.12,4.2,4.2,3.7,4.4,4.2,Senin - Minggu (10:00 - 22:00),"Tunai,Visa,Master,Debet",yes,no,no,no,no,no,yes,yes,yes,yes,no
25,1625020740726315,Francis Artisan Bakery,[ Toko Roti dan Kue ],False,-6.177398,106.792944," Mall Taman Anggrek, Lantai Ground Jl. Letjen S. Parman, Slipi, Jakarta Barat ", Di bawah Rp. 50.000 /orang ,4.09,4.6,3.8,4.0,4.0,4.0,Senin - Minggu (10:00 - 22:00),"Tunai,Visa,Master,Debet",no,no,no,no,no,yes,no,no,yes,no,no
26,1625020749379333,Klean Bowl,[ Barat ],False,-6.174756,106.789674," Neo Soho Mall, Lantai 3A, Open Kitchen Jl. Letjen S. Parman, Slipi, Jakarta Barat ", Rp. 50.000 - Rp. 100.000 /orang ,4.12,4.3,3.9,4.1,4.2,4.1,Senin - Minggu (10:00 - 22:00),Tunai,no,no,no,no,no,yes,no,no,yes,no,no
27,1625020755801659,SaladStop!,,False,-6.176256,106.791378," Central Park, Lantai Lower Ground Jl. Letjen S. Parman, Slipi, Jakarta Barat ", Rp. 100.000 - Rp. 200.000 /orang ,4.06,4.4,3.8,3.6,4.2,4.3,Senin - Minggu (10:00 - 22:00),"Tunai,Visa,Master,Debet",no,no,no,no,no,yes,no,no,yes,no,no
28,1625020766643978,Sushi Tei,[ Jepang ],False,-6.177743,106.791048," Central Park, Lantai 1 Jl. Letjen S. Parman, Slipi, Jakarta Barat ", Rp. 100.000 - Rp. 200.000 /orang ,3.99,4.3,4.0,3.8,3.8,4.0,Senin - Minggu (10:00 - 22:00),"Tunai,Visa,Master,Debet",no,no,no,no,no,yes,yes,yes,yes,no,no
29,1625020785415312,Guten Morgen Coffee Lab & Shop,[ Kafe ],False,-6.173145,106.797861," Jl. Mandala Utara No. 29C, Tomang, Jakarta Barat ", Rp. 50.000 - Rp. 100.000 /orang ,4.01,4.0,4.3,3.6,3.9,4.2,"Senin - Kamis (08:00 - 20:00), Jumat - Minggu (10:00 - 22:00)","Tunai,Debet",yes,no,yes,yes,no,no,no,yes,yes,no,no
30,1625020796634197,Hokkaido Baked Cheese Tart,[ Toko Kue ],False,-6.187858,106.738718," St Moritz Mall (Lippo Mall Puri), Lantai Lower Ground Jl. Puri Indah Boulevard Blok U1, Puri, Jakarta Barat ", Di bawah Rp. 50.000 /orang ,4.16,4.6,3.7,4.1,4.1,4.2,Senin - Minggu (10:00 - 22:00),"Tunai,Visa,Master,Debet",no,no,no,no,no,yes,no,no,yes,no,no
31,1625020803024132,Babochkaa Bistro & Coffee Bar,[ Kafe ],True,-6.177386,106.790398," Central Park, Tribeca Park, Lantai Ground Jl. Letjen S. Parman, Slipi, Jakarta Barat ", Rp. 100.000 - Rp. 200.000 /orang ,4.06,4.0,4.1,3.7,4.1,4.4,Senin - Minggu (10:00 - 21:00),"Tunai,Visa,Master,Debet",yes,no,yes,yes,no,yes,yes,yes,yes,yes,no
32,1625020812620659,%Arabica,[ Kafe ],False,-6.177049,106.791359," Central Park, Lantai Ground Jl. Letjen S. Parman, Slipi, Jakarta Barat ", Rp. 50.000 - Rp. 100.000 /orang ,4.06,4.1,4.3,3.3,4.2,4.4,Senin - Minggu (10:00 - 21:00),"Tunai,Visa,Master,Debet",no,no,yes,yes,no,yes,no,no,yes,no,no
33,1625020821722696,Remboelan,[ Indonesia ],False,-6.177694,106.791088," Central Park, Lantai 1 Jl. Letjen S. Parman, Slipi, Jakarta Barat ", Rp. 50.000 - Rp. 100.000 /orang ,4.11,4.1,4.4,3.7,4.3,4.1,Senin - Minggu (10:00 - 22:00),"Tunai,Visa,Master,Debet",no,no,no,no,no,yes,yes,yes,yes,yes,no
34,1625020828563036,Tony Roma's,[ Barat ],False,-6.188788,106.737947," PX Pavilion, Lantai 1 Jl. Puri Indah Boulevard Blok U1, Puri, Jakarta Barat ", Di atas Rp. 200.000 /orang ,4.11,4.6,4.1,3.4,4.1,4.3,Senin - Minggu (11:00 - 21:00),"Tunai,Visa,Master,Debet",yes,no,yes,yes,no,no,no,yes,yes,yes,no
35,1625020834495176,Toska,[ Kafe ],False,-6.123471,106.709858," Circle West, Citra Garden 6, Blok I1 No. C1 Jl. Raya Citra Garden 6, Cengkareng, Jakarta Barat ", Rp. 50.000 - Rp. 100.000 /orang ,4.17,4.3,4.3,4.0,4.0,4.3,"Senin - Kamis (09:00 - 21:30), Jumat - Minggu (09:00 - 22:00)","Tunai,Debet",yes,no,yes,yes,no,yes,no,yes,yes,no,yes
36,1625020839440237,Penang Bistro,[ Malaysia ],False,-6.177673,106.791106," Central Park, Lantai 1 Jl. Letjen S. Parman, Slipi, Jakarta Barat ", Rp. 100.000 - Rp. 200.000 /orang ,4.04,4.1,4.4,3.6,3.9,4.2,"Senin - Sabtu (11:00 - 22:00), Minggu (10:00 - 22:00)","Tunai,Visa,Master,Debet",yes,yes,no,no,no,yes,yes,yes,yes,yes,no
37,1625020847498969,Kitchenette,"[ Barat, Italia ]",False,-6.188106,106.738878," St Moritz Mall (Lippo Mall Puri), Lantai Ground Jl. Puri Indah Boulevard Blok U1, Puri, Jakarta Barat ", Rp. 100.000 - Rp. 200.000 /orang ,4.13,4.3,4.3,3.8,4.1,4.1,"Senin - Kamis (10:00 - 22:00), Jumat - Sabtu (10:00 - 23:00), Minggu (10:00 - 22:00)","Tunai,Visa,Master,Debet",yes,no,yes,yes,no,no,no,no,yes,yes,no
38,1625020853386785,Mlinjo Cafe & Resto,[ Indonesia ],False,-6.177748,106.800521," Jl. Kemuning No. 50, Tomang, Jakarta Barat ", Di bawah Rp. 50.000 /orang ,4.06,4.2,4.1,4.0,3.8,4.1,Senin - Minggu (09:00 - 21:00),"Tunai,Visa,Master,Debet",yes,yes,yes,yes,no,yes,no,yes,yes,no,no
39,162502086221907,Amba Coffee,[ Kafe ],False,-6.175597,106.79853," Jl. Mandala Raya No. 28B, Tomang, Jakarta Barat ", Di bawah Rp. 50.000 /orang ,4.4,4.3,4.8,3.8,4.5,4.5,Senin - Minggu (10:00 - 23:00),Tunai,yes,no,yes,yes,no,yes,yes,yes,yes,no,no
40,1625020866185246,Central Restaurant,[ China ],True,-6.176867,106.799877," Jl. Tomang Raya No. 29 (Samping Gedung HSBC), Tomang, Jakarta Barat ", Rp. 100.000 - Rp. 200.000 /orang ,4.08,4.3,4.1,3.7,4.3,4.0,"Senin - Jumat (10:00 - 22:00), Sabtu - Minggu (08:00 - 22:00)","Tunai,Visa,Master,Debet",yes,yes,no,no,no,no,yes,yes,yes,yes,no
41,1625020875648882,Pizza Marzano,[ Italia ],False,-6.177673,106.791106," Central Park, Lantai Ground, SOGO Jl. Letjen S. Parman, Slipi, Jakarta Barat ", Rp. 100.000 - Rp. 200.000 /orang ,3.98,4.0,4.2,3.7,4.1,4.0,Senin - Minggu (10:00 - 22:00),"Tunai,Visa,Master,Debet",yes,no,yes,yes,no,yes,no,yes,yes,no,no
42,1625020890448448,Three Uncles,[ China ],False,-6.194066,106.769123," Jl. Panjang No. 5C, Kebon Jeruk, Jakarta Barat ", Rp. 50.000 - Rp. 100.000 /orang ,4.22,4.3,4.2,4.0,4.3,4.3,"Senin - Jumat (11:00 - 22:00), Sabtu - Minggu (08:00 - 21:00)","Tunai,Visa,Master,Debet",yes,no,no,no,no,yes,no,yes,yes,no,no
43,1625020896931724,ou tu Cafe,[ Kafe ],False,-6.170397,106.780381," Jl. Tanjung Duren Utara VIII No. 886, Tanjung Duren, Jakarta Barat ", Di bawah Rp. 50.000 /orang ,4.12,3.8,4.3,4.2,4.2,4.2,"Senin - Kamis (07:30 - 21:00), Jumat - Sabtu (07:30 - 22:00), Minggu (10:00 - 21:00)","Tunai,Visa,Master,Debet,Go-pay,Ovo,Dana",yes,no,yes,no,no,no,no,yes,yes,no,no
44,1625020903153288,Namy House Vegetarian,[ Vegetarian ],False,-6.148231,106.780442," Komplek Taman Duta Mas, Blok C1A No. 16 Jl. Kusuma, Jelambar, Jakarta Barat ", Di bawah Rp. 50.000 /orang ,4.2,4.6,3.7,4.4,4.1,4.2,Senin - Minggu (10:00 - 21:00),"Tunai,Debet",no,yes,yes,yes,no,yes,no,yes,no,no,yes
45,1625020907024749,Layar Seafood,[ Indonesia ],False,-6.195665,106.755811," Jl. Pesanggrahan No. 80, Puri, Jakarta Barat ", Rp. 100.000 - Rp. 200.000 /orang ,4.0,4.5,3.9,3.9,3.8,4.0,Senin - Minggu (11:00 - 22:00),"Tunai,Visa,Master,Debet",yes,yes,yes,yes,no,yes,yes,yes,yes,yes,no
46,1625020915831705,Pesisir Seafood,[ Indonesia ],False,-6.19722,106.756959," Jl. Meruya Ilir No. 9, Meruya, Jakarta Barat ", Rp. 100.000 - Rp. 200.000 /orang ,4.18,4.1,4.5,3.6,4.5,4.3,Senin - Minggu (11:00 - 22:00),"Tunai,Visa,Master,Debet",yes,no,yes,yes,no,yes,yes,yes,yes,yes,yes
47,1625020921555337,Holycow! STEAKHOUSE by Chef Afit,[ Barat ],False,-6.199769,106.769332," Jl. Panjang Arteri Kelapa Dua No. 18, Kebon Jeruk, Jakarta Barat ", Di atas Rp. 200.000 /orang ,3.95,4.4,3.6,4.1,3.8,3.9,Senin - Minggu (11:00 - 22:00),"Tunai,Visa,Master,Debet",no,no,yes,yes,no,yes,no,no,yes,no,no
48,1625020932569143,Ow My Plate,[ Jepang ],False,-6.21764,106.759485," Jl. Raya Joglo No. 28, Meruya, Jakarta Barat ", Di bawah Rp. 50.000 /orang ,4.2,4.2,4.2,4.3,4.1,4.1,Senin - Minggu (11:00 - 23:00),"Tunai,Visa,Master,Debet",yes,no,yes,yes,no,yes,no,yes,yes,no,no
49,1625020935988448,Vilo Gelato & Coffee,[ Es Krim ],False,-6.169727,106.766725," Jl. Surya Wijaya Blok AA2 No. 35 (Sebelah Pizza Hut), Green Ville, Jakarta Barat ", Di bawah Rp. 50.000 /orang ,4.01,4.1,4.0,3.8,4.1,4.0,Senin - Minggu (11:00 - 21:00),"Tunai,Visa,Master,Debet,Go-pay,Ovo,Dana",yes,no,no,no,no,yes,no,no,yes,no,no
50,1625020944582434,PUTIEN,[ China ],False,-6.174832,106.789932," Neo Soho Mall, Lantai Upper Ground Jl. Letjen S. Parman, Slipi, Jakarta Barat ", Rp. 100.000 - Rp. 200.000 /orang ,4.0,4.2,4.1,3.5,4.0,4.1,Senin - Minggu (10:00 - 22:00),"Tunai,Visa,Master,Debet",yes,no,no,no,no,no,yes,yes,yes,yes,no
51,1625020953817692,Sushi Hiro,[ Jepang ],False,-6.177755,106.792534," Mall Taman Anggrek, Lantai 4 Jl. Letjen S. Parman, Slipi, Jakarta Barat ", Rp. 100.000 - Rp. 200.000 /orang ,4.18,4.4,4.3,3.8,4.0,4.3,Senin - Minggu (10:00 - 22:00),"Tunai,Visa,Master,Debet",no,no,no,no,no,no,no,no,yes,yes,no
52,162502095846105,Steak 21 Buffet,[ Barat ],True,-6.177673,106.791106," Central Park, Lantai Lower Ground Jl. Letjen S. Parman, Slipi, Jakarta Barat ", Di atas Rp. 200.000 /orang ,4.1,4.3,3.8,4.0,4.3,4.1,Senin - Minggu (10:00 - 21:00),"Tunai,Visa,Master,Debet,Go-pay,Ovo,Dana",yes,no,no,no,no,yes,yes,yes,yes,no,no
53,1625020966303002,Starbucks Coffee,[ Kafe ],False,-6.169363,106.788945," Universitas Tarumanagara 1 Jl. Letjen S. Parman No. 1, Grogol, Jakarta Barat ", Rp. 50.000 - Rp. 100.000 /orang ,4.15,4.3,4.3,3.8,4.2,4.2,"Senin - Jumat (07:00 - 20:00), Sabtu - Minggu Tutup","Tunai,Visa,Master,Debet",yes,no,no,no,no,yes,no,no,yes,no,no
54,1625020970701742,Eric Kayser Artisan Boulanger,[ Kafe ],False,-6.187858,106.738718," St Moritz Mall (Lippo Mall Puri), Lantai Ground Jl. Puri Indah Boulevard Blok U1, Puri, Jakarta Barat ", Rp. 100.000 - Rp. 200.000 /orang ,3.96,4.1,4.2,3.6,3.9,4.0,"Senin - Kamis (12:00 - 20:00), Jumat - Minggu (12:00 - 21:00)","Tunai,Visa,Master,Debet",yes,no,yes,yes,no,no,no,yes,yes,yes,no
55,1625020981638382,Bariuma Ramen,[ Jepang ],True,-6.177673,106.791106," Central Park, Lantai Lower Ground Jl. Letjen S. Parman, Slipi, Jakarta Barat ", Rp. 100.000 - Rp. 200.000 /orang ,3.99,4.0,4.2,3.6,4.1,4.1,Senin - Minggu (10:00 - 22:00),"Tunai,Visa,Master,Debet,Go-pay,Ovo,Dana",yes,no,no,no,no,no,no,yes,yes,yes,no
56,1625020989620969,Three Folks,[ Kafe ],True,-6.1936702,106.7559418," Jl. Pesanggrahan No. 35A, Puri, Jakarta Barat ( Alamat Lama: Ruko Aries Niaga, Blok A1 No. 3E, Jl. Taman Aries, Meruya, Jakarta Barat ) ", Rp. 50.000 - Rp. 100.000 /orang ,3.93,4.1,4.0,3.9,3.9,3.8,Senin - Minggu (08:00 - 22:00),"Tunai,Visa,Master,Debet,Go-pay,Ovo,Dana",yes,no,yes,yes,no,yes,no,yes,yes,no,no
57,1625020999713533,Papa & Mama Bistro and Coffee,[ Kafe ],True,-6.169587,106.769489," Jl. Green Ville Blok AS No. 40C, Green Ville, Jakarta Barat ", Rp. 50.000 - Rp. 100.000 /orang ,3.95,4.0,4.2,3.8,3.8,3.9,Senin - Minggu (07:00 - 22:00),"Tunai,Visa,Master,Debet,Go-pay",yes,no,yes,yes,no,no,no,yes,yes,no,no
58,1625021009014075,Toast Box,"[ Kafe,Singapura ]",True,-6.188234,106.734108," Puri Indah Mall, Lantai Ground Jl. Puri Indah Raya, Puri, Jakarta Barat ", Rp. 50.000 - Rp. 100.000 /orang ,4.12,4.4,4.2,4.0,3.9,4.1,"Senin - Kamis (08:00 - 22:00), Jumat - Sabtu (08:00 - 23:00), Minggu (08:00 - 22:00)",Tunai,yes,no,no,yes,no,yes,no,no,yes,no,no
59,1625021012137416,Onni House,[ Kafe ],True,-6.173228,106.781492," Jl. Tanjung Duren Utara V No. 242, Tanjung Duren, Jakarta Barat ", Rp. 50.000 - Rp. 100.000 /orang ,3.92,3.7,4.5,3.5,3.9,4.1,"Selasa - Minggu (11:00 - 21:00), Senin Tutup","Tunai,Visa,Master,Debet,Go-pay",yes,no,yes,yes,no,yes,yes,yes,yes,yes,no
60,1625021032231516,Yomie's Rice X Yogurt,[ Yoghurt ],True,-6.188017,106.738946," St Moritz Mall (Lippo Mall Puri), Lantai Lower Ground, Takeshita Street Jl. Puri Indah Boulevard Blok U1, Puri, Jakarta Barat ", Di bawah Rp. 50.000 /orang ,4.01,4.2,4.0,3.6,4.1,4.1,"Senin - Kamis (12:00 - 20:00), Jumat - Minggu (12:00 - 21:00)","Tunai,Visa,Master,Debet,Go-pay,Ovo,Dana",no,no,no,no,no,yes,no,no,yes,no,no
61,162502103941918,Calibrate Coffee,[ Kafe ],False,-6.183295,106.752074," Jl. Puri Kembangan No. 9E - F (Lantai 2), Puri, Jakarta Barat ", Rp. 100.000 - Rp. 200.000 /orang ,4.01,3.9,4.2,3.6,4.2,4.2,Senin - Minggu (07:00 - 21:00),"Tunai,Visa,Master,Debet",yes,no,yes,yes,no,no,no,yes,yes,no,no
62,162502104873463,Kintan Buffet,[ Jepang ],False,-6.188291,106.73414," Puri Indah Mall, Lantai 1 Jl. Puri Indah Raya, Puri, Jakarta Barat ", Di atas Rp. 200.000 /orang ,4.04,4.3,4.0,3.6,4.2,4.1,Senin - Minggu (10:00 - 22:00),"Tunai,Visa,Master,Debet",no,no,no,no,no,yes,no,yes,yes,no,no
63,1625021056727612,Maison Tatsuya,[ Jepang ],False,-6.177673,106.791106," Central Park, Lantai 1 Jl. Letjen S. Parman, Slipi, Jakarta Barat ", Rp. 100.000 - Rp. 200.000 /orang ,3.98,4.1,4.2,3.5,4.1,4.1,Senin - Minggu (11:00 - 22:00),"Tunai,Visa,Master,Debet",yes,no,no,no,no,yes,no,yes,yes,yes,no
64,1625021065250168,RamenYA,[ Jepang ],False,-6.177575,106.791234," Central Park, Lantai Lower Ground Jl. Letjen S. Parman, Slipi, Jakarta Barat ", Rp. 50.000 - Rp. 100.000 /orang ,4.2,4.2,3.8,4.5,4.2,4.3,Senin - Minggu (11:00 - 21:00),"Tunai,Visa,Master,Debet",no,no,no,no,no,yes,no,no,yes,no,no
65,1625021068868427,Momokino,[ Jepang ],False,-6.188093,106.73887," St Moritz Mall (Lippo Mall Puri), Lantai Lower Ground, The FoodHall Jl. Puri Indah Boulevard Blok U1, Puri, Jakarta Barat ", Di bawah Rp. 50.000 /orang ,4.06,4.3,3.9,4.3,3.9,4.0,Senin - Minggu (10:00 - 22:00),"Tunai,Visa,Master,Debet",no,no,no,no,no,yes,no,no,yes,no,no
66,1625021073807543,Starbucks Coffee,[ Kafe ],False,-6.151926,106.817752," Hayam Wuruk Plaza, Lantai Ground Jl. Hayam Wuruk Raya, Hayam Wuruk, Jakarta Barat ", Rp. 50.000 - Rp. 100.000 /orang ,4.05,4.4,4.1,3.6,4.2,3.9,Senin - Minggu (06:00 - 21:00),"Tunai,Visa,Master,Debet",yes,no,yes,yes,no,yes,no,no,yes,no,no
67,1625021078917295,Loobie Lobster,[ Barat ],False,-6.199689,106.76934," Jl. Panjang Arteri Kelapa Dua No. 18, Kebon Jeruk, Jakarta Barat ", Rp. 100.000 - Rp. 200.000 /orang ,4.04,4.4,3.7,4.1,4.0,4.1,"Senin - Jumat (11:00 - 14:00, 17:00 - 22:00), Sabtu - Minggu (11:00 - 22:00)","Tunai,Visa,Master,Debet",no,no,no,no,no,yes,no,yes,yes,no,no
68,1625021084387605,J.CO Donuts & Coffee,[ Kafe ],False,-6.1875697,106.7343627," Puri Indah Mall, Lantai Ground Jl. Puri Indah Raya, Puri, Jakarta Barat ", Di bawah Rp. 50.000 /orang ,3.92,4.0,4.0,3.9,3.9,3.8,Senin - Minggu (08:00 - 23:00),"Tunai,Visa,Master,Debet",yes,yes,yes,yes,no,yes,no,yes,yes,no,no
69,1625021092444305,KOI The,[ Kafe ],False,-6.174832,106.789932," Neo Soho Mall, Lantai Upper Ground Jl. Letjen S. Parman, Slipi, Jakarta Barat ", Di bawah Rp. 50.000 /orang ,3.96,4.3,3.7,4.0,3.9,4.0,Senin - Minggu (10:00 - 22:00),"Tunai,Visa,Master,Debet",no,no,no,no,no,yes,no,no,yes,no,no
70,1625021099323089,Roti Srikaya Ajung,[ Toko Roti ],True,-6.151435,106.807058," Jl. Krendang Raya No. 3, Jembatan Lima, Jakarta Barat ", Di bawah Rp. 50.000 /orang ,4.0,4.2,3.4,4.4,4.0,4.0,Senin - Minggu (11:00 - 23:00),Tunai,no,no,yes,no,no,yes,no,no,no,no,no
71,1625021107782691,Rumah Juliet,[ Vegetarian ],False,-6.170306,106.786319," Jl. Alpukat III No. 52, Tanjung Duren, Jakarta Barat ", Di bawah Rp. 50.000 /orang ,4.14,4.2,4.0,4.4,4.0,4.1,Senin - Minggu (13:00 - 22:00),"Tunai,Debet",yes,no,no,no,no,yes,no,no,no,no,yes
72,1625021112311963,Martabak Bangka Akim,[ Indonesia ],False,-6.173827,106.784553," Jl. Tanjung Duren Raya No. 44 (Seberang Bank UOB), Tanjung Duren, Jakarta Barat ( Alamat Lama: Jl. Tanjung Duren Utara IV No. 457A, Tanjung Duren, Jakarta Barat ) ", Di bawah Rp. 50.000 /orang ,3.88,4.6,3.0,4.5,3.9,3.4,Senin - Minggu (11:30 - 22:00),Tunai,no,no,yes,no,no,yes,no,no,no,no,no
73,162502112659471,Mangiamoo Bistro & Coffee,[ Kafe ],True,-6.175964,106.786505," Jl. Tanjung Duren Timur No. 19B, Tanjung Duren, Jakarta Barat ", Rp. 50.000 - Rp. 100.000 /orang ,4.6,4.3,4.8,4.5,4.8,4.8,"Selasa - Minggu (10:00 - 22:00), Senin Tutup",Tunai,yes,yes,no,no,no,yes,no,yes,yes,yes,no
74,1625021129465983,Saint Cinnamon & Coffee,[ Kafe ],False,-6.178309,106.792076," Mall Taman Anggrek, Lantai 3 Jl. Letjen S. Parman, Slipi, Jakarta Barat ", Di bawah Rp. 50.000 /orang ,3.98,4.5,3.4,4.1,4.0,3.9,Senin - Minggu (10:00 - 22:00),"Tunai,Visa,Master,Debet",no,no,no,no,no,yes,no,yes,yes,no,no
75,1625021139436376,Joe & Dough,[ Kafe ],False,-6.188442,106.733968," Puri Indah Mall, Lantai Ground Jl. Puri Indah Raya, Puri, Jakarta Barat ", Rp. 100.000 - Rp. 200.000 /orang ,3.98,4.0,4.1,3.5,4.1,4.2,Senin - Minggu (10:00 - 22:00),"Tunai,Visa,Master,Debet",yes,no,yes,yes,no,yes,no,yes,yes,no,no
76,1625021147725449,Francis Artisan Bakery,[ Toko Roti dan Kue ],False,-6.177743,106.791048," Central Park, Lantai 2 Jl. Letjen S. Parman, Slipi, Jakarta Barat ", Di bawah Rp. 50.000 /orang ,4.03,4.6,4.0,3.3,4.1,4.1,Senin - Minggu (10:00 - 22:00),"Tunai,Visa,Master,Debet",no,no,no,no,no,yes,no,no,yes,no,no
77,1625021154856669,Thai Street,[ Thailand ],False,-6.188299,106.734145," Puri Indah Mall, Lantai 2 Jl. Puri Indah Raya, Puri, Jakarta Barat ", Rp. 50.000 - Rp. 100.000 /orang ,3.98,4.2,3.9,4.0,3.8,4.0,Senin - Minggu (10:00 - 22:00),"Tunai,Visa,Master,Debet",yes,no,no,no,no,yes,no,yes,yes,no,no
78,1625021161640019,Kopi Janji Jiwa,[ Kafe ],False,-6.125594,106.711288," Ruko Sixth Avenue, West Land, Blok H6A No. 30, Soto Betawi H. Mamat, Lantai 2 Jl. Raya Citra Garden 6, Cengkareng, Jakarta Barat ", Di bawah Rp. 50.000 /orang ,3.96,4.1,3.8,4.1,3.9,3.9,Senin - Minggu (08:00 - 24:00),Tunai,no,no,yes,yes,no,yes,no,no,yes,no,no
79,1625021169313977,Pizza Hut,,False,-6.188269,106.734196," Puri Indah Mall, Lantai 1 Jl. Puri Indah Raya, Puri, Jakarta Barat ", Rp. 50.000 - Rp. 100.000 /orang ,3.94,4.2,3.9,3.7,3.9,3.9,Senin - Minggu (10:00 - 22:00),"Tunai,Visa,Master,Debet",yes,yes,no,no,no,yes,no,yes,yes,no,no
80,1625021178598255,Kimukatsu,[ Jepang ],False,-6.188093,106.73887," St Moritz Mall (Lippo Mall Puri), Lantai Lower Ground, Takeshita Street Jl. Puri Indah Boulevard Blok U1, Puri, Jakarta Barat ", Rp. 50.000 - Rp. 100.000 /orang ,3.9,4.0,3.9,3.9,3.8,3.9,Senin - Minggu (10:00 - 22:00),"Tunai,Visa,Master,Debet",no,no,no,no,no,yes,no,no,yes,no,no
81,1625021189343216,Timbre Coffee,[ Minuman ],False,-6.174419,106.783634," Live! Yard Food Street Market Jl. Tanjung Duren Raya No. 61, Tanjung Duren, Jakarta Barat ", Di bawah Rp. 50.000 /orang ,4.08,4.1,4.1,3.9,4.3,4.0,Senin - Minggu (07:00 - 23:00),Tunai,yes,no,yes,yes,no,yes,no,no,no,no,no
82,1625021195496662,Billie Kitchen,[ Kafe ],False,-6.169365,106.773379," Jl. Green Ville Blok BK No. 5, Green Ville, Jakarta Barat ", Rp. 50.000 - Rp. 100.000 /orang ,3.99,4.1,4.1,3.9,3.8,4.0,Senin - Minggu (10:00 - 22:00),"Tunai,Visa,Master,Debet",yes,no,no,no,no,yes,no,yes,yes,no,no
83,1625021202278441,Francis Artisan Bakery,[ Toko Roti dan Kue ],False,-6.187573,106.739601," St Moritz Mall (Lippo Mall Puri), Lantai Lower Ground Jl. Puri Indah Boulevard Blok U1, Puri, Jakarta Barat ", Di bawah Rp. 50.000 /orang ,3.99,4.5,3.7,4.0,3.8,4.0,Senin - Minggu (10:00 - 22:00),"Tunai,Visa,Master,Debet",no,no,no,no,no,yes,no,no,yes,no,no
84,1625021209714905,Fish & Co.,[ Barat ],False,-6.187951,106.733957," Puri Indah Mall Expansion, Lantai Ground Jl. Puri Indah Raya, Puri, Jakarta Barat ", Rp. 100.000 - Rp. 200.000 /orang ,3.94,4.3,4.0,3.7,3.8,3.9,Senin - Minggu (11:00 - 23:00),"Tunai,Visa,Master,Debet",yes,no,yes,yes,no,yes,no,yes,yes,no,no
85,1625021217305174,KOI The,[ Kafe ],False,-6.178216,106.791985," Mall Taman Anggrek, Lantai 4 Jl. Letjen S. Parman, Slipi, Jakarta Barat ", Di bawah Rp. 50.000 /orang ,3.92,4.3,3.7,3.9,3.9,3.9,Senin - Minggu (10:00 - 22:00),"Tunai,Visa,Master,Debet",no,no,no,no,no,yes,no,no,yes,no,no
86,1625021226873234,Bloom Coffee & Eatery,[ Kafe ],False,-6.161001,106.777732," Ruko Swadaya City Square, Blok I No.8 Jl. Swadaya, Jelambar, Jakarta Barat ", Di bawah Rp. 50.000 /orang ,4.09,3.8,4.0,4.4,4.3,4.0,Senin - Minggu (11:00 - 22:00),Tunai,yes,no,yes,yes,no,yes,no,yes,yes,no,no
87,1625021232771462,Kebuli Ijab Qabul,[ Arab/Timur Tengah ],True,-6.164817828830922,106.79," Jl. Dr. Susilo III No. 16, Grogol, Jakarta Barat ", Di bawah Rp. 50.000 /orang ,3.97,4.5,3.3,4.2,4.0,3.9,"Senin - Jumat (10:00 - 21:00), Sabtu (08:00 - 21:00), Minggu (08:00 - 21:00)","Tunai,Debet,Go-pay,Ovo",no,no,yes,no,no,yes,no,no,no,no,no
88,1625021241797949,Starbucks Coffee,[ Kafe ],False,-6.177639,106.790462," Central Park, Lantai Ground Jl. Letjen S. Parman, Slipi, Jakarta Barat ", Rp. 50.000 - Rp. 100.000 /orang ,3.93,4.1,3.9,3.6,4.0,4.1,"Senin - Jumat (07:00 - 22:30), Sabtu - Minggu (08:00 - 23:00)","Tunai,Visa,Master,Debet",yes,no,yes,yes,no,yes,no,no,yes,no,no
89,1625021251875723,7D Seven Days Kitchen & Bar,[ Barat ],True,-6.1882604,106.7390987," St Moritz Mall (Lippo Mall Puri), Lantai Ground Jl. Puri Indah Boulevard Blok U1, Puri, Jakarta Barat ", Rp. 100.000 - Rp. 200.000 /orang ,4.44,4.0,4.6,4.4,4.6,4.6,Senin - Minggu (10:00 - 21:00),"Tunai,Visa,Master,Debet,Go-pay",yes,no,yes,no,no,no,yes,yes,yes,yes,no
90,1625021254902054,Zenbu,[ Jepang ],False,-6.177673,106.791106," Central Park, Lantai Lower Ground Jl. Letjen S. Parman, Slipi, Jakarta Barat ", Rp. 100.000 - Rp. 200.000 /orang ,3.9,4.2,3.8,3.7,3.9,4.0,Senin - Minggu (10:00 - 22:00),"Tunai,Visa,Master,Debet",yes,no,no,no,no,yes,no,yes,yes,no,no
91,1625021274771227,Haagen - Dazs,[ Es Krim ],False,-6.187907,106.733976," Puri Indah Mall Expansion, Lantai Ground Jl. Puri Indah Raya, Puri, Jakarta Barat ", Rp. 50.000 - Rp. 100.000 /orang ,4.02,4.5,3.8,3.6,4.1,4.1,"Senin - Jumat (10:00 - 22:00), Sabtu (10:00 - 24:00), Minggu (10:00 - 22:00)","Tunai,Visa,Master,Debet",yes,yes,yes,yes,no,yes,no,yes,yes,no,no
92,1625021280383473,Seroeni,[ China ],False,-6.18785,106.738747," St Moritz Mall (Lippo Mall Puri), Lantai 1 Jl. Puri Indah Boulevard Blok U1, Puri, Jakarta Barat ", Rp. 50.000 - Rp. 100.000 /orang ,3.95,4.1,4.2,3.6,3.9,4.0,Senin - Minggu (11:00 - 22:00),"Tunai,Visa,Master,Debet",no,no,no,no,no,yes,no,yes,yes,no,no
93,1625021288471083,Sushi Tei,[ Jepang ],False,-6.187907,106.733976," Puri Indah Mall Expansion, Lantai 1 Jl. Puri Indah Raya, Puri, Jakarta Barat ", Rp. 100.000 - Rp. 200.000 /orang ,3.96,4.2,4.0,3.7,4.0,4.0,Senin - Minggu (10:00 - 22:00),"Tunai,Visa,Master,Debet",no,no,no,no,no,yes,yes,yes,yes,no,no
94,162502129495687,Marugame Udon,[ Jepang ],False,-6.187951,106.733957," Puri Indah Mall, Lantai 2 Jl. Puri Indah Raya, Puri, Jakarta Barat ", Rp. 50.000 - Rp. 100.000 /orang ,3.98,4.3,3.7,4.0,4.0,4.0,Senin - Minggu (10:00 - 22:00),"Tunai,Visa,Master,Debet",no,no,no,no,no,yes,no,yes,yes,no,no
95,1625021300524689,Ojju,[ Korea ],False,-6.177049,106.791359," Central Park, Lantai Lower Ground Jl. Letjen S. Parman, Slipi, Jakarta Barat ", Rp. 50.000 - Rp. 100.000 /orang ,3.96,4.1,3.7,3.7,4.2,4.1,Senin - Minggu (10:00 - 22:00),"Tunai,Visa,Master,Debet",no,no,no,no,no,yes,no,no,yes,no,no
96,1625021312086304,Rumah Kita,[ Indonesia ],False,-6.175493,106.798648," Jl. Mandala Raya No. 28BC, Tomang, Jakarta Barat ", Di bawah Rp. 50.000 /orang ,4.33,4.2,4.5,3.8,4.5,4.7,Senin - Minggu (10:00 - 23:00),Tunai,yes,no,yes,yes,no,yes,not sure,no,yes,no,no
97,1625021315517735,Shaburi Shabu Shabu,[ Jepang ],False,-6.174832,106.789932," Neo Soho Mall, Lantai Lower Ground Jl. Letjen S. Parman, Slipi, Jakarta Barat ", Di atas Rp. 200.000 /orang ,3.96,4.2,3.9,3.8,4.0,4.0,Senin - Minggu (10:00 - 22:00),"Tunai,Visa,Master,Debet",no,no,no,no,no,yes,no,yes,yes,no,no
98,1625021324029834,Wang Dynasty,[ China ],False,-6.169787,106.768588," Jl. Ratu Kemuning Blok F1 No. 1A - 1D, Green Ville, Jakarta Barat ", Rp. 100.000 - Rp. 200.000 /orang ,4.01,3.9,4.2,3.5,4.2,4.2,Senin - Minggu (08:00 - 22:00),"Tunai,Visa,Master,Debet",yes,no,yes,yes,no,no,yes,yes,yes,yes,no
99,1625021331426736,Wee Nam Kee,[ China ],False,-6.177386,106.790398," Central Park, Lantai Lower Ground Jl. Letjen S. Parman, Slipi, Jakarta Barat ", Rp. 50.000 - Rp. 100.000 /orang ,4.0,4.1,4.0,3.9,3.8,4.2,Senin - Minggu (10:00 - 22:00),"Tunai,Visa,Master,Debet",no,no,no,no,no,yes,no,yes,yes,yes,no
100,1625021337731174,Taichan Mama Chu,[ Indonesia ],False,-6.143668895541759,106.69," Ruko Citra Business Park, Blok F11 Jl. Peta Barat, Kalideres, Jakarta Barat ", Di bawah Rp. 50.000 /orang ,4.2,4.3,3.3,4.6,4.7,4.1,Senin - Minggu (15:00 - 24:00),"Tunai,Ovo",no,yes,yes,no,no,yes,no,no,yes,no,no
101,1625021342356251,Bermvda Coffee,[ Kafe ],False,-6.177264,106.790625," Central Park, Tribeca Park, Lantai Ground Jl. Letjen S. Parman, Slipi, Jakarta Barat ", Rp. 50.000 - Rp. 100.000 /orang ,4.01,4.1,4.3,3.3,4.1,4.2,Senin - Minggu (10:00 - 21:00),"Tunai,Visa,Debet",yes,no,yes,yes,no,yes,no,yes,yes,no,no
102,1625021348769624,Ippudo,[ Jepang ],False,-6.177673,106.791106," Central Park, Lantai Lower Ground Jl. Letjen S. Parman, Slipi, Jakarta Barat ", Rp. 100.000 - Rp. 200.000 /orang ,3.91,4.2,3.9,3.4,4.0,4.1,Senin - Minggu (10:00 - 22:00),"Tunai,Visa,Master,Debet",no,no,no,no,no,no,no,no,yes,yes,no
103,1625021359208672,HokBen (Hoka Hoka Bento) Delivery,,False,-6.192926,106.755429," Jl. Pesanggrahan No. 12B, Puri, Jakarta Barat ", Rp. 50.000 - Rp. 100.000 /orang ,3.99,4.4,3.6,4.2,3.8,4.0,24 Jam,"Tunai,Visa,Master,Debet,Go-pay,Ovo,Dana",no,yes,no,no,yes,yes,no,no,yes,no,no
104,1625021364243688,Adora Lezat,[ Toko Kue ],False,-6.17386,106.784266," Jl. Tanjung Duren Raya No. 51 (Seberang Bank UOB), Tanjung Duren, Jakarta Barat ", Rp. 100.000 - Rp. 200.000 /orang ,4.0,3.9,3.9,4.0,4.1,4.1,Senin - Minggu (08:00 - 22:00),"Tunai,Visa,Master,Debet",yes,no,no,no,no,yes,no,no,yes,no,no
105,1625021371829572,SiniLagi,[ Kafe ],True,-6.18406,106.753301," Jl. Puri Kembangan No. 10, Puri, Jakarta Barat ", Rp. 50.000 - Rp. 100.000 /orang ,4.04,3.9,4.0,3.9,4.1,4.2,Senin - Minggu (07:30 - 19:30),"Visa,Master,Debet,Go-pay,Ovo",yes,no,yes,yes,no,yes,no,no,yes,no,no
106,1625021379227577,Taeyang Sung,[ Korea ],False,-6.174832,106.789932," Neo Soho Mall, Lantai Lower Ground Jl. Letjen S. Parman, Slipi, Jakarta Barat ", Rp. 100.000 - Rp. 200.000 /orang ,3.93,4.3,3.6,3.6,3.9,4.2,Senin - Minggu (10:00 - 22:00),"Tunai,Visa,Master,Debet",no,no,no,no,no,yes,no,yes,yes,no,no
107,1625021390618487,Starbucks Coffee,[ Kafe ],False,-6.187573,106.739601," St Moritz Mall (Lippo Mall Puri), Lantai Ground (Area Lobby 1) Jl. Puri Indah Boulevard Blok U1, Puri, Jakarta Barat ", Rp. 50.000 - Rp. 100.000 /orang ,3.91,3.9,3.9,3.7,4.1,4.0,"Senin - Kamis (09:00 - 22:00), Jumat - Minggu (09:00 - 23:00)","Tunai,Visa,Master,Debet",yes,no,yes,yes,no,yes,no,no,yes,no,no
108,1625021402044497,Dancing Goat Coffee Co.,[ Kafe ],False,-6.190614,106.749743," Ruko Grand Puri Niaga, Blok K6 No. 2P Jl. Puri Kencana Raya, Puri, Jakarta Barat ", Rp. 50.000 - Rp. 100.000 /orang ,3.93,4.0,4.3,3.6,3.9,3.9,Senin - Minggu (09:00 - 18:00),"Tunai,Visa,Master,Debet",yes,no,yes,no,no,yes,no,yes,yes,no,no
109,1625021408227122,Abura Soba Yamatoten,[ Jepang ],False,-6.174826,106.78993," Neo Soho Mall, Lantai Upper Ground Jl. Letjen S. Parman, Slipi, Jakarta Barat ", Rp. 50.000 - Rp. 100.000 /orang ,4.07,4.5,3.8,3.7,4.1,4.3,Senin - Minggu (10:00 - 21:30),"Tunai,Visa,Master,Debet",no,no,no,no,no,no,no,no,yes,yes,no
110,1625021413518858,Kitchenette,"[  Barat,Italia ]",False,-6.177673,106.791106," Central Park, Tribeca Park, Lantai Ground Jl. Letjen S. Parman, Slipi, Jakarta Barat ", Rp. 100.000 - Rp. 200.000 /orang ,3.87,4.0,4.3,3.4,3.8,4.0,"Senin (09:00 - 24:00), Selasa - Kamis (09:00 - 23:00), Jumat - Sabtu (09:00 - 24:00), Minggu (09:00 - 23:00)","Tunai,Visa,Master,Debet",yes,no,yes,yes,no,no,no,yes,yes,yes,no
111,1625021429595044,Say Something Coffee,[ Kafe ],False,-6.191752,106.751099," Ruko Grand Aries Niaga, Blok G1 No. 2O Jl. Taman Aries, Meruya, Jakarta Barat ", Di bawah Rp. 50.000 /orang ,3.94,3.7,4.4,3.7,3.8,4.1,Senin - Minggu (08:00 - 20:00),"Tunai,Debet",yes,no,no,no,no,yes,no,yes,yes,no,no
112,162502143519718,Kokumi,[ Kafe ],False,-6.179936,106.711214," Ruko Sentra Niaga, Blok O No. 3, Green Lake City Jl. Green Lake City Boulevard, Cengkareng, Jakarta Barat ", Di bawah Rp. 50.000 /orang ,3.91,3.9,4.2,3.5,3.9,4.0,Senin - Minggu (08:00 - 22:00),"Tunai,Debet",yes,no,no,no,no,yes,no,no,yes,no,no
113,1625021443074578,Gyu Kaku,[ Jepang ],False,-6.1878197,106.738839," St Moritz Mall (Lippo Mall Puri), Lantai Lower Ground Jl. Puri Indah Boulevard Blok U1, Puri, Jakarta Barat ", Di atas Rp. 200.000 /orang ,3.91,4.3,3.9,3.5,3.8,4.0,Senin - Minggu (10:00 - 22:00),"Tunai,Visa,Master,Debet",yes,no,no,no,no,yes,no,yes,yes,yes,no
114,1625021452270101,Phos Coffee & Eatery,[ Kafe ],False,-6.165522,106.809909," King Foto Jl. KH Hasyim Ashari No. 36, Roxy, Jakarta Barat ", Rp. 50.000 - Rp. 100.000 /orang ,3.88,3.9,4.1,3.6,3.9,4.0,Senin - Minggu (07:00 - 21:00),"Tunai,Visa,Master,Debet",yes,no,yes,no,no,yes,yes,yes,yes,no,no
115,1625021464889189,Pizza Marzano,[ Italia ],False,-6.188093,106.73887," St Moritz Mall (Lippo Mall Puri), Lantai Lower Ground, The FoodHall Jl. Puri Indah Boulevard Blok U1, Puri, Jakarta Barat ", Rp. 100.000 - Rp. 200.000 /orang ,4.0,4.2,4.1,3.6,4.1,4.0,Senin - Minggu (10:00 - 22:00),"Tunai,Visa,Master,Debet",no,no,no,no,no,yes,no,yes,yes,no,no
116,1625021471793671,KOI The,[ Kafe ],False,-6.188207,106.738852," St Moritz Mall (Lippo Mall Puri), Lantai 1 Jl. Puri Indah Boulevard Blok U1, Puri, Jakarta Barat ", Di bawah Rp. 50.000 /orang ,3.87,4.3,3.7,3.9,3.8,3.7,Senin - Minggu (10:00 - 22:00),"Tunai,Visa,Master,Debet",no,no,no,no,no,yes,no,no,yes,no,no
117,162502148041573,Simply Thai,[ Thailand ],False,-6.179836,106.708451," Ruko Food City, No. 65, Green Lake City Jl. West Europe Boulevard, Cengkareng, Jakarta Barat ", Rp. 50.000 - Rp. 100.000 /orang ,4.06,4.1,4.4,3.6,4.1,4.1,"Senin - Kamis (11:00 - 22:00), Jumat - Sabtu (11:00 - 22:30), Minggu (11:00 - 22:00)","Tunai,Visa,Master,Debet",yes,yes,yes,yes,no,yes,no,yes,yes,no,no
118,1625021484471117,Raa Cha,[ Thailand ],False,-6.168102,106.786605," Mall Ciputra Jakarta, Lantai 5 Jl. Arteri S. Parman, Grogol, Jakarta Barat ", Rp. 50.000 - Rp. 100.000 /orang ,3.96,4.1,3.9,4.0,4.0,3.9,Senin - Minggu (10:00 - 22:00),"Tunai,Visa,Master,Debet",no,no,no,no,no,yes,no,yes,yes,no,no
119,1625021490125796,Magal Korean BBQ,[ Korea ],False,-6.128498,106.714676," Ciffest, Citra Garden 6, Blok L7 Unit C Jl. Raya Citra Garden 6, Cengkareng, Jakarta Barat ", Rp. 100.000 - Rp. 200.000 /orang ,4.23,4.7,4.2,3.7,4.5,4.2,Senin - Minggu (11:30 - 21:00),"Tunai,Visa,Master,Debet",yes,no,no,no,no,no,no,yes,yes,yes,no
120,162502149351955,Bebek Kaleyo,[ Indonesia ],True,-6.152852,106.71337," The Bale Jl. Tanah Lot Raya, Daan Mogot, Jakarta Barat ", Di bawah Rp. 50.000 /orang ,3.95,4.3,3.7,4.3,3.7,3.7,"Senin - Sabtu (10:30 - 22:30), Minggu Tutup",Tunai,no,no,yes,no,no,yes,no,yes,yes,no,no
121,1625021499782362,Bottlenose Shack,[ Kafe ],False,-6.177673,106.791106," Central Park, Tribeca Park, Lantai Ground Jl. Letjen S. Parman, Slipi, Jakarta Barat ", Rp. 100.000 - Rp. 200.000 /orang ,3.87,3.9,4.0,3.6,4.0,4.0,Senin - Minggu (10:00 - 01:00),"Tunai,Visa,Master,Debet",yes,no,yes,yes,no,yes,yes,yes,yes,yes,no
122,1625021512914508,Pizza Hut,,False,-6.168102,106.786605," Mall Ciputra Jakarta, Lantai Upper Ground Jl. Arteri S. Parman, Grogol, Jakarta Barat ", Rp. 50.000 - Rp. 100.000 /orang ,4.0,4.2,3.9,3.9,3.9,4.1,Senin - Minggu (10:00 - 22:00),"Tunai,Visa,Master,Debet",yes,yes,no,no,no,yes,no,yes,yes,no,no
123,1625021518174008,Kedai Seni Djakarte,[ Kafe ],False,-6.135605,106.812922," Taman Fatahillah Jl. Pintu Besar Utara No. 17, Kota, Jakarta Barat ", Di bawah Rp. 50.000 /orang ,4.02,4.1,3.9,4.4,4.0,3.7,"Selasa - Minggu (10:00 - 21:00), Senin Tutup","Tunai,Visa,Master,Debet",yes,no,yes,yes,no,yes,no,yes,yes,no,no
124,1625021523615886,Dear Butter,[ Snack ],False,-6.177386,106.790398," Central Park, Tribeca Park, Lantai Ground Jl. Letjen S. Parman, Slipi, Jakarta Barat ", Di bawah Rp. 50.000 /orang ,4.0,4.7,3.3,4.3,3.8,4.0,Senin - Minggu (10:00 - 21:00),"Tunai,Debet,Go-pay,Ovo,Dana",no,no,no,no,no,yes,no,no,yes,no,no
125,162502152838633,Gado - Gado Cemara,[ Indonesia ],False,-6.145483,106.81525," Citywalk Gajah Mada, Lantai 1 Jl. Gajah Mada No. 211, Gajah Mada, Jakarta Barat ", Rp. 50.000 - Rp. 100.000 /orang ,3.89,4.0,3.8,3.9,3.9,3.9,Senin - Minggu (10:00 - 22:00),"Tunai,Visa,Master,Debet",no,yes,no,no,no,yes,no,yes,yes,no,no
126,1625021540367516,KOI The,[ Kafe ],False,-6.168343,106.786387," Mall Ciputra Jakarta, Lantai Upper Ground Jl. Arteri S. Parman, Grogol, Jakarta Barat ", Di bawah Rp. 50.000 /orang ,3.86,4.1,3.7,3.8,3.9,3.8,Senin - Minggu (10:00 - 22:00),"Tunai,Visa,Master,Debet",no,no,no,no,no,yes,no,no,yes,no,no
127,1625021554454902,House 89 Restaurant & Cafe,[ Kafe ],False,-6.178019,106.780136," Jl. Tanjung Duren Barat IV No. 1, Tanjung Duren, Jakarta Barat ", Rp. 50.000 - Rp. 100.000 /orang ,4.4,4.8,4.5,4.3,4.3,4.3,"Senin - Kamis (10:00 - 22:00), Jumat - Sabtu (10:00 - 23:00), Minggu (10:00 - 22:00)","Tunai,Visa,Master,Debet,Go-pay,Dana",yes,no,yes,yes,no,yes,no,no,yes,yes,no
128,1625021557051053,Dolls Bakeshop,[ Kafe ],True,-6.1808099,106.7396748," Jl. Buana Biru Besar No. 11, Puri, Jakarta Barat ", Di bawah Rp. 50.000 /orang ,4.13,4.1,4.0,4.0,4.3,4.2,"Selasa - Minggu (08:00 - 20:00), Senin Tutup",Tunai,no,no,yes,yes,no,no,no,yes,yes,no,no
129,1625021562284992,Warung Bu Kris,[ Indonesia ],False,-6.197119,106.751182," Ruko GH Kembangan Jl. Meruya Ilir Blok GH No. 1, Meruya, Jakarta Barat ", Rp. 50.000 - Rp. 100.000 /orang ,3.88,4.4,3.5,4.1,3.7,3.8,"Selasa - Minggu (10:00 - 21:00), Senin Tutup",Tunai,no,yes,no,no,no,yes,no,yes,yes,no,no
130,1625021569149292,Dino Bites,[ Kafe ],False,-6.165429,106.771065," Jl. Gang Macan No. 102C (Sebelah Gerbang Green Ville Tahap IV), Green Ville, Jakarta Barat ", Rp. 50.000 - Rp. 100.000 /orang ,3.93,3.7,4.2,3.7,4.0,4.1,"Senin (10:00 - 22:00), Rabu - Minggu (10:00 - 22:00), Selasa Tutup","Tunai,Visa,Master,Debet",yes,no,no,no,no,yes,no,yes,yes,no,no
131,1625021577407387,Kopi Merdeka,[ Kafe ],False,-6.187237,106.758337," Satu8 Residence, Lantai Ground Jl. Pilar Mas Utama Kav. 18, Kebon Jeruk, Jakarta Barat ", Di bawah Rp. 50.000 /orang ,4.67,4.7,4.7,4.7,4.7,4.7,Senin - Minggu (07:00 - 20:00),Tunai,yes,no,yes,yes,no,yes,no,yes,yes,no,no
132,1625021579548013,Ippudo,[ Jepang ],False,-6.188093,106.73887," St Moritz Mall (Lippo Mall Puri), Lantai Lower Ground, Takeshita Street Jl. Puri Indah Boulevard Blok U1, Puri, Jakarta Barat ", Rp. 100.000 - Rp. 200.000 /orang ,3.96,4.3,3.8,3.6,4.1,4.0,Senin - Minggu (10:00 - 22:00),"Tunai,Visa,Master,Debet",no,no,no,no,no,no,no,no,yes,yes,no
133,1625021585356551,Pizza Hut,,False,-6.199275,106.768856," Jl. Panjang, Kebon Jeruk, Jakarta Barat ", Rp. 50.000 - Rp. 100.000 /orang ,3.94,4.1,3.9,3.8,3.9,3.9,not listed,Tunai,not sure,not sure,not sure,not sure,no,yes,not sure,not sure,yes,no,no
134,1625021591075114,Donburi Ichiya,[ Jepang ],False,-6.187858,106.738718," St Moritz Mall (Lippo Mall Puri), Lantai Lower Ground Jl. Puri Indah Boulevard Blok U1, Puri, Jakarta Barat ", Rp. 50.000 - Rp. 100.000 /orang ,3.88,4.1,3.8,3.6,4.0,4.0,"Senin - Kamis (12:00 - 20:00), Jumat - Minggu (12:00 - 21:00)","Tunai,Visa,Master,Debet",yes,no,no,no,no,yes,no,yes,yes,no,no
135,1625021603633276,Pancious,[ Italia ],False,-6.177962,106.792517," Mall Taman Anggrek, Lantai 3 Jl. Letjen S. Parman, Slipi, Jakarta Barat ", Rp. 100.000 - Rp. 200.000 /orang ,3.89,4.1,4.0,3.4,3.9,4.0,Senin - Minggu (10:00 - 22:00),"Tunai,Visa,Master,Debet",yes,no,no,no,no,yes,no,yes,yes,no,no
136,1625021614030443,Oja Milkbar,[ Kafe ],False,-6.17202,106.783161," Jl. Tanjung Duren Utara IV No. 223B, Tanjung Duren, Jakarta Barat ", Di bawah Rp. 50.000 /orang ,4.45,4.5,4.5,4.3,4.5,4.5,"Senin - Jumat (11:00 - 22:00), Sabtu - Minggu (11:00 - 23:00)","Tunai,Debet,Go-pay,Ovo,Dana",yes,no,yes,yes,no,yes,no,no,yes,no,no
137,1625021617068343,Seulawah Coffee,[ Kafe ],False,-6.195474,106.756079," Jl. Pesanggrahan No. 8, Puri, Jakarta Barat ", Di bawah Rp. 50.000 /orang ,3.93,4.0,3.9,4.3,3.6,3.8,Senin - Minggu (11:00 - 21:00),"Tunai,Debet",yes,no,yes,yes,no,yes,no,yes,yes,no,no
138,1625021623055353,Pizza E Birra,[ Italia ],False,-6.177673,106.791106," Central Park, Tribeca Park, Lantai Ground Jl. Letjen S. Parman, Slipi, Jakarta Barat ", Rp. 100.000 - Rp. 200.000 /orang ,3.91,3.9,4.2,3.3,4.0,4.3,"Senin (09:00 - 24:00), Selasa - Kamis (09:00 - 23:00), Jumat - Sabtu (09:00 - 24:00), Minggu (09:00 - 23:00)","Tunai,Visa,Master,Debet",yes,no,yes,yes,no,yes,no,yes,yes,yes,no
139,162502163398523,Fish Village,[ China ],False,-6.1390854,106.7289799," Green Sedayu Mall, Lantai 1 Jl. Taman Palem Lestari No. 1, Cengkareng, Jakarta Barat ", Rp. 50.000 - Rp. 100.000 /orang ,4.32,4.2,4.6,4.0,4.4,4.4,Senin - Minggu (11:00 - 20:00),"Tunai,Visa,Master,Debet",yes,no,no,no,no,no,yes,no,yes,yes,no
140,1625021637452798,Lamian Palace,[ China ],True,-6.174832,106.789932," Neo Soho Mall, Lantai Lower Ground Jl. Letjen S. Parman, Slipi, Jakarta Barat ", Rp. 50.000 - Rp. 100.000 /orang ,3.85,4.2,3.5,4.0,3.8,3.7,Senin - Minggu (10:00 - 22:00),"Tunai,Visa,Master,Debet",no,no,no,no,no,no,no,yes,yes,yes,no
141,1625021649019592,Tsurukamedou,[ Jepang ],False,-6.169699,106.769585," Jl. Ratu Kemuning Blok A2 No. 8A, Green Ville, Jakarta Barat ", Rp. 50.000 - Rp. 100.000 /orang ,3.88,4.2,3.7,3.7,4.0,3.9,Senin - Minggu (11:00 - 21:00),"Tunai,Visa,Master,Debet,Ovo",yes,no,no,no,no,no,no,yes,yes,yes,no
142,1625021661249181,Kopi Soe,[ Kafe ],True,-6.181815,106.783692," Jl. Tanjung Duren Raya No. 157A, Tanjung Duren, Jakarta Barat ", Di bawah Rp. 50.000 /orang ,4.0,4.4,3.5,4.3,3.9,3.9,"Senin - Kamis (10:00 - 22:00), Jumat - Sabtu (10:00 - 23:00), Minggu (10:00 - 22:00)",Tunai,yes,no,yes,yes,no,yes,no,no,yes,no,no
143,1625021665813392,Tuxedo Coffee,[ Kafe ],False,-6.169443,106.795648," Jl. Tawakal VI No. 12A, Tomang, Jakarta Barat ( Alamat Lama: Jl. Alpukat III No. 15, Tanjung Duren, Jakarta Barat ) ", Di bawah Rp. 50.000 /orang ,4.28,4.6,4.2,4.2,4.2,4.2,Senin - Minggu (12:00 - 23:00),"Tunai,Visa,Master,Debet",yes,no,yes,no,no,yes,no,yes,no,no,no
144,1625021668392519,Nasi Campur Afuk,[ China ],False,-6.156389,106.876256," Sunter Hijau Food Point Jl. Sunter Hijau Raya Blok S3 No. 1, Sunter, Jakarta Utara ", Rp. 50.000 - Rp. 100.000 /orang ,4.32,4.4,4.0,4.6,4.2,4.4,Senin - Minggu (08:00 - 19:00),"Tunai,Go-pay,Ovo",no,no,yes,no,no,no,no,no,no,no,no
145,1625021671362017,Yum Cha Hauz,[ China ],True,-6.146924,106.818326," Jl. Labu No. 1, Mangga Besar, Jakarta Barat ", Di bawah Rp. 50.000 /orang ,3.9,3.9,4.0,3.9,3.8,4.0,Senin - Minggu (09:00 - 21:00),"Tunai,Visa,Master,Debet,Go-pay,Ovo",yes,no,yes,no,no,no,no,yes,no,yes,no
146,1625021680220616,Cufungmoi - Song Sui Hok Lopan,[ China ],False,-6.161632,106.781182," Jl. Hadiah I No. 10, Jelambar, Jakarta Barat ", Di bawah Rp. 50.000 /orang ,3.87,4.6,2.9,4.6,3.8,3.4,Senin - Minggu (07:00 - 15:00),Tunai,no,no,yes,yes,no,no,no,no,no,no,no
147,1625021686923467,Paradise Dynasty,[ China ],False,-6.177673,106.791106," Central Park, Lantai Lower Ground Jl. Letjen S. Parman, Slipi, Jakarta Barat ", Rp. 100.000 - Rp. 200.000 /orang ,3.89,4.3,3.8,3.4,4.0,4.1,Senin - Minggu (10:00 - 22:00),"Tunai,Visa,Master,Debet",no,no,no,no,no,no,yes,yes,yes,yes,no
148,1625021702694071,Gins. Co Cafe,[ Kafe ],True,-6.19038,106.737978," CNI Creative Center (C-3) Building Jl. Puri Indah Blok O2 No.1 - 3, Puri, Jakarta Barat ", Rp. 50.000 - Rp. 100.000 /orang ,4.17,4.0,4.2,4.5,4.2,4.0,"Senin - Jumat (07:00 - 20:00), Sabtu - Minggu (09:00 - 20:00)","Tunai,Visa,Master,Debet",yes,no,yes,yes,no,yes,yes,yes,yes,no,no
149,1625021704692641,Tsujiri,[ Kafe ],False,-6.174832,106.789932," Neo Soho Mall, Lantai Lower Ground Jl. Letjen S. Parman, Slipi, Jakarta Barat ", Rp. 50.000 - Rp. 100.000 /orang ,3.83,4.1,3.8,3.5,3.9,4.0,Senin - Minggu (10:00 - 22:00),"Tunai,Visa,Master,Debet",yes,no,no,no,no,yes,no,yes,yes,no,no
150,1625021724595919,Ramen SeiRock-Ya,[ Jepang ],True,-6.188307,106.73414," Puri Indah Mall, Lantai 2 Jl. Puri Indah Raya, Puri, Jakarta Barat ", Rp. 50.000 - Rp. 100.000 /orang ,4.15,4.4,3.5,4.4,4.4,4.1,Senin - Minggu (10:00 - 22:00),"Tunai,Visa,Master,Debet",no,no,no,no,no,yes,no,yes,yes,no,no
151,1625021728234662,Glosis,[ Barat ],False,-6.188291,106.73414," Puri Indah Mall, Lantai 1 Jl. Puri Indah Raya, Puri, Jakarta Barat ", Rp. 100.000 - Rp. 200.000 /orang ,3.95,4.1,3.8,3.8,4.1,4.0,Senin - Minggu (10:00 - 22:00),"Tunai,Visa,Master,Debet",yes,no,no,no,no,no,no,yes,yes,yes,no
152,1625021735245333,Dookki,[ Korea ],False,-6.177822,106.791075," Central Park, Lantai Lower Ground Jl. Letjen S. Parman, Slipi, Jakarta Barat ", Rp. 100.000 - Rp. 200.000 /orang ,3.96,4.1,3.6,3.9,4.3,3.9,Senin - Minggu (10:00 - 22:00),"Tunai,Visa,Master,Debet",yes,no,no,no,no,yes,no,yes,yes,no,no
153,1625021742981738,Rawon Bar,[ Indonesia ],False,-6.174292,106.78362," Live! Yard Food Street Market Jl. Tanjung Duren Raya No. 61, Tanjung Duren, Jakarta Barat ", Di bawah Rp. 50.000 /orang ,3.97,4.1,3.5,4.3,4.1,3.9,"Selasa - Minggu (11:00 - 22:00), Senin Tutup",Tunai,no,no,yes,no,no,yes,no,no,no,no,no
154,1625021748290848,Kopi Janji Jiwa,[ Kafe ],False,-6.16132,106.762693," Ruko Green Garden, Blok Y3 No. 11 Jl. Panjang Raya, Green Garden, Jakarta Barat ", Di bawah Rp. 50.000 /orang ,3.95,4.0,3.7,4.2,3.9,4.0,Senin - Minggu (08:00 - 24:00),"Tunai,Visa,Master,Debet",yes,no,yes,yes,no,yes,no,no,yes,no,no
155,1625021753283973,ShuShu,[ Minuman ],False,-6.17475,106.790113," Neo Soho Mall, Lantai Lower Mezzanine, The Foodhall Jl. Letjen S. Parman, Slipi, Jakarta Barat ", Di bawah Rp. 50.000 /orang ,3.9,4.1,3.9,3.7,4.0,3.9,Senin - Minggu (10:00 - 22:00),Tunai,no,no,no,no,no,yes,no,no,yes,no,no
156,162502176047177,Pizza Hut Delivery (PHD),,False,-6.177448,106.789023," Ruko Garden Shopping Arcade, Blok C No. 9AP Jl. Letjen S. Parman, Tanjung Duren, Jakarta Barat ", Rp. 50.000 - Rp. 100.000 /orang ,4.09,4.2,3.9,4.0,4.2,4.1,Senin - Minggu (10:00 - 02:00),"Tunai,Visa,Master,Debet",no,yes,no,no,no,yes,no,no,yes,no,no
157,1625021764009617,Alfa X,[ Kafe ],False,-6.169599,106.790526," Jl. Letjen S. Parman (Samping Untar 1), Slipi, Jakarta Barat ", Di bawah Rp. 50.000 /orang ,4.4,4.5,4.5,4.3,4.5,4.3,Senin - Minggu (07:00 - 23:00),Tunai,yes,no,no,no,no,yes,no,no,yes,no,no
158,1625021767776845,Bakmi GM,[ Indonesia ],False,-6.178304,106.792435," Mall Taman Anggrek, Lantai 1 Jl. Letjen S. Parman, Slipi, Jakarta Barat ( Alamat Lama: Mall Taman Anggrek, Lantai 2, Jl. Letjen S. Parman, Slipi, Jakarta Barat ) ", Di bawah Rp. 50.000 /orang ,3.9,4.1,3.6,3.9,3.9,4.0,Senin - Minggu (10:00 - 22:00),"Tunai,Visa,Master,Debet",no,yes,no,no,no,yes,no,yes,yes,no,no
159,1625021776053323,Kopi Kanto,[ Kafe ],False,-6.131194,106.733719," Ruko Hawaii, Blok A No. 105 Jl. Kapuk Cengkareng, Cengkareng, Jakarta Barat ", Di bawah Rp. 50.000 /orang ,4.4,4.8,4.0,4.8,4.3,4.3,Senin - Minggu (08:00 - 21:30),Tunai,yes,no,yes,yes,no,yes,no,no,yes,no,no
160,1625021778920918,Kopi Kenangan,[ Minuman ],False,-6.167884,106.786454," Mall Ciputra Jakarta, Lantai Lower Ground Jl. Arteri S. Parman, Grogol, Jakarta Barat ", Di bawah Rp. 50.000 /orang ,3.97,3.9,3.7,4.2,4.1,4.0,Senin - Minggu (10:00 - 22:00),Tunai,no,no,no,no,no,yes,no,no,yes,no,no
161,1625021783723682,Restaurant Sarang Oci,[ Indonesia ],False,-6.203196,106.769685," Jl. Panjang Arteri Kelapa Dua No. 99, Kebon Jeruk, Jakarta Barat ", Rp. 50.000 - Rp. 100.000 /orang ,3.88,4.4,3.4,4.1,3.8,3.8,Senin - Minggu (10:00 - 22:00),"Tunai,Visa,Master,Debet",no,yes,no,no,no,yes,no,yes,yes,yes,no
162,1625021792274425,B'Steak Grill & Pancake,[ Barat ],True,-6.169407,106.771484," Jl. Green Ville Blok AS No. 32, Green Ville, Jakarta Barat ", Rp. 100.000 - Rp. 200.000 /orang ,3.88,4.0,3.8,3.7,3.9,4.0,Senin - Minggu (10:00 - 20:00),"Tunai,Visa,Master,Debet,Go-pay,Ovo",yes,no,yes,yes,no,yes,yes,yes,yes,yes,no
163,1625021802939488,Nanny's Pavillon,"[ Barat,Italia ]",False,-6.177743,106.791128," Central Park, Lantai Ground, SOGO Jl. Letjen S. Parman, Slipi, Jakarta Barat ", Rp. 100.000 - Rp. 200.000 /orang ,3.82,3.9,4.1,3.4,3.7,4.0,Senin - Minggu (10:00 - 22:00),"Tunai,Visa,Master,Debet",no,no,yes,yes,no,yes,no,yes,yes,no,no
164,1625021814195599,Common Grounds,[ Kafe ],False,-6.174832,106.789932," Neo Soho Mall, Lantai Ground Jl. Letjen S. Parman, Slipi, Jakarta Barat ", Rp. 100.000 - Rp. 200.000 /orang ,3.82,3.9,4.2,3.3,3.6,4.1,Senin - Minggu (07:00 - 22:00),"Tunai,Visa,Master,Debet",yes,no,yes,yes,no,no,no,yes,yes,yes,no
165,1625021830159502,McDonald's,,False,-6.218776,106.754079," Jl. Raya Joglo, Meruya, Jakarta Barat ", Di bawah Rp. 50.000 /orang ,3.82,4.2,3.6,3.9,3.7,3.8,24 Jam,"Tunai,Debet",yes,yes,yes,yes,yes,yes,yes,yes,yes,no,no
166,162502183858398,Tea Amo,[ Minuman ],True,-6.179603,106.711409," Ruko Sentra Niaga, Blok N No. 3, Green Lake City Jl. Green Lake City Boulevard, Cengkareng, Jakarta Barat ", Di bawah Rp. 50.000 /orang ,4.1,4.4,3.8,4.3,4.0,4.1,Senin - Minggu (11:00 - 21:00),"Tunai,Visa,Master,Go-pay,Ovo",no,no,no,no,no,yes,no,no,yes,no,no
167,1625021843747949,Boens Soes,[ Kafe ],False,-6.158298,106.778219," Jl. Swadaya No. 46A, Jelambar, Jakarta Barat ", Di bawah Rp. 50.000 /orang ,3.91,4.2,3.5,4.0,3.9,4.0,"Senin - Sabtu (08:00 - 19:00), Minggu Tutup","Tunai,Debet",no,yes,yes,no,no,yes,no,no,yes,no,no
168,1625021851185041,Marugame Udon,[ Jepang ],False,-6.174699,106.790043," Neo Soho Mall, Lantai Lower Ground Jl. Letjen S. Parman, Slipi, Jakarta Barat ", Rp. 50.000 - Rp. 100.000 /orang ,3.87,4.1,3.6,3.7,4.0,3.9,Senin - Minggu (10:00 - 22:00),"Tunai,Visa,Master,Debet",no,no,no,no,no,yes,no,no,yes,no,no
169,162502186263591,Alpukat Bistro,[ Vegetarian ],False,-6.170393,106.785321," Jl. Alpukat II No. 6 - 7, Tanjung Duren, Jakarta Barat ", Di bawah Rp. 50.000 /orang ,3.92,3.9,4.1,3.9,3.6,4.1,"Senin - Minggu (08:00 - 14:00, 16:00 - 21:00)","Tunai,Visa,Master,Debet",no,yes,no,no,no,yes,no,yes,yes,no,yes
170,1625021868404054,WJ De' Cafe,[ Kafe ],False,-6.150009,106.779633," Komplek Taman Duta Mas, Blok B6 No. 12A - 14 Jl. Kusuma IA, Jelambar, Jakarta Barat ", Di bawah Rp. 50.000 /orang ,4.02,3.5,4.4,3.9,4.2,4.2,Senin - Minggu (07:30 - 22:30),"Tunai,Debet",yes,no,yes,yes,no,no,no,yes,yes,yes,no
171,1625021872210434,Clave Coffee Shop,[ Kafe ],True,-6.186487,106.767798," Plaza Kedoya Elok, Blok DB No. 31 Jl. Panjang No. 7 - 9, Kedoya, Jakarta Barat ", Di bawah Rp. 50.000 /orang ,4.02,4.2,4.1,3.8,4.0,4.0,"Senin - Jumat (09:00 - 17:00), Sabtu (10:00 - 15:00), Minggu Tutup","Tunai,Go-pay,Ovo,Dana",yes,no,no,no,no,yes,no,yes,yes,no,no
172,1625021876926812,Moon Chicken,,False,-6.1868184,106.7549433," Hangry! Jl. Pesanggrahan No. 168F, Puri, Jakarta Barat ", Di bawah Rp. 50.000 /orang ,3.98,4.6,3.6,3.8,3.8,4.1,Senin - Minggu (08:00 - 01:00),"Tunai,Visa,Master,Debet,Go-pay,Ovo",yes,no,yes,yes,no,yes,no,yes,yes,no,no
173,1625021883062846,Tatei Cafe,[ Kafe ],False,-6.180257,106.709582," Ruko Food City, No. 22, Green Lake City Jl. West Europe Boulevard, Cengkareng, Jakarta Barat ", Rp. 50.000 - Rp. 100.000 /orang ,4.02,4.0,4.2,3.9,3.9,4.1,Senin - Minggu (11:00 - 20:00),"Tunai,Visa,Master,Debet,Go-pay,Ovo",yes,no,no,no,no,yes,no,yes,yes,no,no
174,1625021887137449,Beatrice Quarters,"[ Barat,Italia ]",False,-6.177673,106.791106," Central Park, Lantai Lower Ground Jl. Letjen S. Parman, Slipi, Jakarta Barat ", Rp. 100.000 - Rp. 200.000 /orang ,3.9,4.1,3.8,3.5,4.1,4.0,Senin - Minggu (10:00 - 22:00),"Tunai,Visa,Master,Debet,Ovo,Dana",yes,no,no,no,no,yes,no,yes,yes,no,no
175,1625021897480452,Popolamama,[ Italia ],False,-6.178125,106.791961," Mall Taman Anggrek, Lantai 4 Jl. Letjen S. Parman, Slipi, Jakarta Barat ", Rp. 100.000 - Rp. 200.000 /orang ,3.86,4.0,4.0,3.5,3.9,4.0,Senin - Minggu (10:00 - 22:00),"Tunai,Visa,Master,Debet",yes,no,no,no,no,yes,no,yes,yes,no,no
176,1625021908309182,Momokino,[ Jepang ],True,-6.168449,106.786884," Mall Ciputra Jakarta, Lantai 5 Jl. Arteri S. Parman, Grogol, Jakarta Barat ", Di bawah Rp. 50.000 /orang ,3.86,4.0,3.7,3.8,3.9,3.9,Senin - Minggu (10:00 - 22:00),"Tunai,Debet",no,no,no,no,no,yes,no,no,yes,no,no
177,1625021918116973,The People's Cafe,[ Kafe ],False,-6.177673,106.791106," Central Park, Lantai Ground Jl. Letjen S. Parman, Slipi, Jakarta Barat ", Rp. 100.000 - Rp. 200.000 /orang ,3.85,3.9,4.0,3.6,3.9,3.9,"Senin - Kamis (08:00 - 22:00), Jumat - Sabtu (08:00 - 24:00), Minggu (08:00 - 22:00)","Tunai,Visa,Master,Debet",yes,no,yes,yes,no,yes,no,yes,yes,yes,no
178,1625021928488182,Kappa Sushi,[ Jepang ],False,-6.1779639,106.7902127," Central Park, Lantai Lower Ground Jl. Letjen S. Parman, Slipi, Jakarta Barat ", Di atas Rp. 200.000 /orang ,4.27,4.3,3.8,4.0,4.5,4.7,Senin - Minggu (10:00 - 21:00),"Tunai,Visa,Master,Debet",yes,no,no,no,no,yes,no,yes,yes,no,no
179,1625021931907816,Imperial Kitchen & Dimsum,[ China ],True,-6.187858,106.738718," St Moritz Mall (Lippo Mall Puri), Lantai Lower Ground Jl. Puri Indah Boulevard Blok U1, Puri, Jakarta Barat ", Rp. 50.000 - Rp. 100.000 /orang ,3.96,4.5,3.6,4.0,3.9,3.8,Senin - Minggu (10:00 - 22:00),"Tunai,Visa,Master,Debet",no,no,no,no,no,yes,no,no,yes,no,no
180,1625021937004963,Gulu Gulu,[ Minuman ],False,-6.169269,106.789858," Universitas Tarumanagara 1 Jl. Letjen S. Parman No. 1, Grogol, Jakarta Barat ", Di bawah Rp. 50.000 /orang ,4.04,4.7,3.4,4.0,4.0,4.1,"Senin - Sabtu (10:00 - 17:00), Minggu Tutup",Tunai,no,no,no,no,no,yes,no,no,yes,no,no
181,1625021940500458,Restaurant Baku Sayang,[ Indonesia ],False,-6.19481,106.755548," Jl. Pesanggrahan No. 27, Puri, Jakarta Barat ", Rp. 50.000 - Rp. 100.000 /orang ,3.99,4.0,4.0,3.6,4.2,4.1,Senin - Minggu (11:00 - 22:00),"Tunai,Visa,Master,Debet",yes,no,no,no,no,yes,yes,yes,yes,yes,no
182,1625021946170142,The Pancake Co. by DORE,[ Kafe ],False,-6.189869,106.7388605," St Moritz Mall (Lippo Mall Puri), Lantai Lower Ground Jl. Puri Indah Boulevard Blok U1, Puri, Jakarta Barat ", Rp. 100.000 - Rp. 200.000 /orang ,3.96,4.2,4.3,3.6,3.8,3.9,Senin - Minggu (10:00 - 22:00),"Tunai,Visa,Master,Debet",yes,no,no,no,no,yes,no,yes,yes,no,no
183,162502195176456,Marugame Udon,[ Jepang ],False,-6.128548,106.714789," Ciffest, Citra Garden 6 Jl. Raya Citra Garden 6 , Cengkareng, Jakarta Barat ", Rp. 50.000 - Rp. 100.000 /orang ,4.04,4.2,3.9,3.9,4.1,4.1,Senin - Minggu (10:00 - 22:00),"Tunai,Debet",no,no,yes,yes,no,yes,no,no,yes,no,no
184,1625021955566365,Couvee,[ Kafe ],True,-6.173504,106.787042," Ruko Sentra Bisnis, Blok A No. 7 Jl. Tanjung Duren Raya, Tanjung Duren, Jakarta Barat ", Di bawah Rp. 50.000 /orang ,3.9,4.2,3.8,3.8,3.9,3.9,Senin - Minggu (09:30 - 17:00),"Tunai,Visa,Master,Debet,Go-pay,Ovo",yes,no,no,no,no,yes,no,no,yes,no,no
185,1625021961460488,Bebek Goreng HT Khas Surabaya,[ Indonesia ],False,-6.187881,106.755705," Jl. Pesanggrahan No. 138, Puri, Jakarta Barat ", Rp. 50.000 - Rp. 100.000 /orang ,3.86,4.4,3.6,4.1,3.8,3.4,Senin - Minggu (10:30 - 20:00),"Tunai,Visa,Master,Debet",no,yes,yes,yes,no,yes,no,yes,yes,no,no
186,1625021967161849,Fore Coffee,[ Kafe ],False,-6.186632,106.755012," Jl. Pesanggrahan No. 168M, Puri, Jakarta Barat ", Di bawah Rp. 50.000 /orang ,3.86,3.9,4.0,3.6,3.8,4.0,Senin - Minggu (07:00 - 22:00),"Tunai,Visa,Master,Debet",yes,no,yes,yes,no,yes,no,yes,yes,no,no
187,1625021976130771,RM Sinar Minang,[ Indonesia ],False,-6.166779,106.786469," Jl. Daan Mogot No. 19F, Daan Mogot, Jakarta Barat ", Di bawah Rp. 50.000 /orang ,3.95,4.2,3.6,4.2,4.0,3.8,Senin - Minggu (10:00 - 02:00),Tunai,no,yes,yes,no,no,yes,no,no,yes,no,no
188,1625021981093858,Numani Gelato & Coffee,[ Kafe ],True,-6.1915663,106.7508764," Ruko Grand Aries Niaga, Blok G1 No. 1T Jl. Taman Aries, Meruya, Jakarta Barat ", Di bawah Rp. 50.000 /orang ,5.0,5.0,5.0,5.0,5.0,5.0,Senin - Minggu (11:00 - 18:00),Tunai,yes,no,yes,no,no,yes,no,yes,yes,no,no
189,1625021982646265,Bakmi O-Ten,[ China ],False,-6.170169,106.776935," Jl. Kompleks Graha Indah Green Ville No. 10, Green Ville, Jakarta Barat ", Di bawah Rp. 50.000 /orang ,5.0,5.0,5.0,5.0,5.0,5.0,"Selasa - Minggu (06:30 - 14:30), Senin Tutup",Tunai,no,yes,yes,no,no,no,no,no,no,no,no
190,1625021984075935,Henis,"[ Indonesia,Toko Roti ]",False,-6.1492642,106.8198749," Jl. Mangga Besar Raya No. 27, Mangga Besar, Jakarta Barat ( Alamat Lama: Jl. Mangga Besar Raya No. 2F, Mangga Besar, Jakarta Barat ) ", Rp. 50.000 - Rp. 100.000 /orang ,3.81,4.2,3.7,3.7,3.6,3.8,Senin - Minggu (07:00 - 21:00),"Tunai,Visa,Master,Debet",no,no,no,no,no,yes,no,no,yes,no,no
191,1625021994690362,Coco Ichibanya,[ Jepang ],False,-6.174832,106.789932," Neo Soho Mall, Lantai Lower Ground Jl. Letjen S. Parman, Slipi, Jakarta Barat ", Rp. 100.000 - Rp. 200.000 /orang ,3.83,4.2,3.7,3.3,3.8,4.1,Senin - Minggu (10:00 - 22:00),"Tunai,Visa,Master,Debet",yes,no,no,no,no,yes,no,no,yes,no,no
192,1625022004804634,Raa Cha,[ Thailand ],False,-6.188311,106.734137," Puri Indah Mall, Lantai 2 Jl. Puri Indah Raya, Puri, Jakarta Barat ", Rp. 50.000 - Rp. 100.000 /orang ,4.04,4.1,4.0,4.0,4.1,4.0,Senin - Minggu (10:00 - 22:00),"Tunai,Visa,Master,Debet",no,no,no,no,no,yes,no,yes,yes,no,no
193,1625022008980805,Shao Kao,[ China ],False,-6.169628,106.768884," Jl. Ratu Kemuning Blok D11 No. 25, Green Ville, Jakarta Barat ", Rp. 50.000 - Rp. 100.000 /orang ,3.89,4.3,3.6,3.9,3.7,3.9,"Senin - Kamis (16:00 - 01:00), Jumat - Sabtu (16:00 - 02:00), Minggu (16:00 - 01:00)","Tunai,Visa,Master,Debet",yes,no,yes,yes,no,no,no,yes,no,yes,no
194,1625022015626009,Ikkudo Ichi,[ Jepang ],False,-6.188311,106.734137," Puri Indah Mall, Lantai 2 Jl. Puri Indah Raya, Puri, Jakarta Barat ", Rp. 50.000 - Rp. 100.000 /orang ,3.9,4.3,3.7,4.0,3.7,3.8,Senin - Minggu (10:00 - 21:00),"Tunai,Visa,Master,Debet",no,no,no,no,no,no,no,yes,yes,no,no
195,1625022020078188,ShuShu,[ Minuman ],False,-6.187858,106.738718," St Moritz Mall (Lippo Mall Puri), Lantai Lower Ground, The FoodHall Jl. Puri Indah Boulevard Blok U1, Puri, Jakarta Barat ", Di bawah Rp. 50.000 /orang ,3.92,4.3,3.8,3.4,4.1,4.1,Senin - Minggu (10:00 - 22:00),"Tunai,Debet",no,no,no,no,no,yes,no,no,yes,no,no
196,1625022026724843,Tanatap,[ Kafe ],False,-6.199313000005562,106.72," Jl. Jalur 20 Blok 30 No. 19, Meruya, Jakarta Barat ", Di bawah Rp. 50.000 /orang ,3.98,3.9,4.1,3.8,4.1,4.1,Senin - Minggu (08:00 - 20:00),"Tunai,Visa,Master,Debet,Go-pay,Ovo,Dana",yes,no,yes,yes,no,yes,no,yes,yes,no,no
197,162502203111251,Bakmie Aloi,[ China ],False,-6.174434,106.77818," Jl. Mangga II Blok B No. 37, Green Ville, Jakarta Barat ( Alamat Lama: Ruko Green Ville, Blok AV 15E, Green Ville, Jl. Green Ville, Green Ville, Jakarta Barat ) ", Di bawah Rp. 50.000 /orang ,3.87,4.5,3.4,4.0,3.8,3.7,Senin - Minggu (06:00 - 21:30),"Tunai,Debet",no,yes,yes,yes,no,no,no,yes,no,no,no
198,1625022037707869,Fore Coffee,[ Kafe ],False,-6.168331,106.786795," Mall Ciputra Jakarta, Lantai Lower Ground Jl. Arteri S. Parman, Grogol, Jakarta Barat ", Di bawah Rp. 50.000 /orang ,3.86,3.8,3.9,3.9,3.8,3.9,Senin - Minggu (10:00 - 22:00),Tunai,yes,no,yes,yes,no,yes,no,no,yes,no,no
199,1625022046003625,Paletas Wey,[ Es Krim ],False,-6.193917,106.769092," Jl. Panjang No. 5, Kebon Jeruk, Jakarta Barat ", Di bawah Rp. 50.000 /orang ,4.02,4.4,3.9,3.8,4.0,4.0,Senin - Minggu (10:00 - 22:00),"Tunai,Visa,Master,Debet",no,no,no,no,no,yes,no,no,yes,no,no
200,1625022050120577,Coffee Tea'se Me,[ Kafe ],True,-6.165456,106.809301," Jl. KH Hasyim Ashari No. 44, Roxy, Jakarta Barat ", Rp. 50.000 - Rp. 100.000 /orang ,3.93,3.9,4.1,3.8,3.9,4.0,Senin - Minggu (08:00 - 22:00),"Tunai,Visa,Master,Debet,Go-pay,Ovo",yes,no,yes,yes,no,yes,yes,yes,yes,no,no
201,1625022058184361,Roti Boy,[ Toko Roti ],False,-6.174832,106.789932," Neo Soho Mall, Lantai Lower Ground Jl. Letjen S. Parman, Slipi, Jakarta Barat ", Di bawah Rp. 50.000 /orang ,3.9,4.2,3.4,4.2,3.8,3.9,Senin - Minggu (10:00 - 22:00),"Tunai,Debet",no,no,no,no,no,yes,no,no,yes,no,no
202,1625022064322275,Xing Fu Tang,[ Bubble Tea ],False,-6.174842,106.790063," Neo Soho Mall, Lantai 1 Jl. Letjen S. Parman, Slipi, Jakarta Barat ", Di bawah Rp. 50.000 /orang ,3.86,4.1,3.8,3.6,3.9,4.0,Senin - Minggu (10:00 - 22:00),Tunai,no,no,no,no,no,yes,no,no,yes,no,no
203,162502207206444,Ta Wan,[ China ],False,-6.178332,106.792082," Mall Taman Anggrek, Lantai P2 Jl. Letjen S. Parman, Slipi, Jakarta Barat ", Rp. 50.000 - Rp. 100.000 /orang ,3.86,4.2,3.6,3.8,3.8,4.0,Senin - Minggu (10:00 - 22:00),"Tunai,Visa,Master,Debet",no,no,no,no,no,yes,no,yes,yes,no,no
204,1625022078864065,Pig Me Up,[ China ],False,-6.178333,106.792075," Mall Taman Anggrek, Lantai Ground, North Wing Area Jl. Letjen S. Parman, Slipi, Jakarta Barat ", Rp. 50.000 - Rp. 100.000 /orang ,3.97,4.3,3.4,4.1,4.1,4.0,Senin - Minggu (10:00 - 22:00),Tunai,no,no,no,no,no,no,no,yes,yes,no,no
205,1625022083428944,Genki Sushi,[ Jepang ],False,-6.188093,106.73887," St Moritz Mall (Lippo Mall Puri), Lantai Lower Ground, The FoodHall Jl. Puri Indah Boulevard Blok U1, Puri, Jakarta Barat ", Rp. 100.000 - Rp. 200.000 /orang ,3.86,3.9,3.8,3.7,4.0,3.9,Senin - Minggu (10:00 - 22:00),"Tunai,Visa,Master,Debet",yes,no,no,no,no,no,no,no,yes,no,no
206,1625022092862379,Formosan Kitchen & Tea Bar,[ Taiwan ],False,-6.168102,106.786605," Mall Ciputra Jakarta, Lantai Lower Ground Jl. Arteri S. Parman, Grogol, Jakarta Barat ", Rp. 100.000 - Rp. 200.000 /orang ,3.96,4.1,4.1,3.7,3.9,4.0,Senin - Minggu (10:00 - 22:00),"Tunai,Visa,Master,Debet",yes,no,no,no,no,yes,no,yes,yes,no,no
207,1625022097971118,Coca Suki Restaurant,[  Thailand ],False,-6.1901666667,106.7615," Komplek Graha Mas Jl. Raya Perjuangan, Kebon Jeruk, Jakarta Barat ", Rp. 100.000 - Rp. 200.000 /orang ,3.95,4.4,4.3,3.6,3.6,4.0,"Senin - Kamis (11:00 - 14:45, 18:00 - 21:45), Jumat - Minggu (11:00 - 14:45, 18:00 - 22:00)","Tunai,Visa,Master,Debet",yes,no,yes,no,no,yes,yes,yes,yes,yes,no
208,1625022101786103,John & James,[ Italia ],False,-6.178665,106.711762," Ruko Sentra Niaga, Blok H No. 5, Green Lake City Jl. Green Lake City Boulevard, Cengkareng, Jakarta Barat ", Rp. 100.000 - Rp. 200.000 /orang ,3.92,3.9,3.9,3.8,3.8,4.1,"Senin - Kamis (11:00 - 22:00), Jumat (11:00 - 23:00), Sabtu (11:00 - 24:00), Minggu (11:00 - 23:00)","Tunai,Visa,Master,Debet",yes,yes,yes,yes,no,yes,no,yes,yes,yes,no
209,1625022108363971,Sandjaja & Seafood,[ Indonesia ],False,-6.166049,106.794388," Jl. Dr. Susilo Raya No. 18A, Grogol, Jakarta Barat ", Rp. 50.000 - Rp. 100.000 /orang ,3.93,4.2,3.8,3.9,3.8,3.9,Senin - Minggu (10:00 - 22:00),"Tunai,Visa,Master,Debet",yes,yes,yes,yes,no,yes,no,yes,no,no,no
210,1625022113110092,Bakerzin,[ Barat ],False,-6.177673,106.791106," Central Park, Lantai Ground Jl. Letjen S. Parman, Slipi, Jakarta Barat ", Rp. 100.000 - Rp. 200.000 /orang ,3.81,4.0,4.0,3.3,3.8,4.0,Senin - Minggu (10:00 - 22:00),"Tunai,Visa,Master,Debet",yes,no,yes,yes,no,yes,no,yes,yes,no,no
211,1625022144485363,Dapur Vegetarian,[ Vegetarian ],False,-6.175301,106.783525," Jl. Tanjung Duren Raya No. 74, Tanjung Duren, Jakarta Barat ", Di bawah Rp. 50.000 /orang ,4.02,3.9,3.9,4.1,4.2,4.0,"Senin (10:00 - 20:00), Rabu - Minggu (10:00 - 20:00), Selasa Tutup",Tunai,yes,no,no,no,no,yes,no,yes,yes,no,yes
212,1625022153548825,To The Bone,[ Barat ],False,-6.165725,106.798283," Jl. Rawa Bahagia I No. 12, Grogol, Jakarta Barat ", Rp. 50.000 - Rp. 100.000 /orang ,4.14,4.1,3.9,4.1,4.3,4.3,"Senin - Jumat (09:00 - 18:00), Sabtu - Minggu Tutup","Tunai,Go-pay,Ovo,Dana",yes,no,yes,no,no,yes,no,no,yes,no,no
213,1625022158373076,KOI The,[ Kafe ],False,-6.177673,106.791106," Central Park, Lantai Lower Ground Jl. Letjen S. Parman, Slipi, Jakarta Barat ", Di bawah Rp. 50.000 /orang ,3.87,4.0,3.7,3.9,4.0,3.8,Senin - Minggu (10:00 - 22:00),"Tunai,Visa,Master,Debet",no,no,no,no,no,yes,no,no,yes,no,no
214,1625022164582164,Tiger Hill,[ Bubble Tea ],True,-6.187692,106.733861," Puri Indah Mall Expansion, Lantai 1 Jl. Puri Indah Raya, Puri, Jakarta Barat ", Di bawah Rp. 50.000 /orang ,3.81,4.0,3.6,3.6,3.9,4.0,Senin - Minggu (10:00 - 20:30),"Tunai,Visa,Master,Debet",no,no,no,no,no,yes,no,no,yes,no,no
215,1625022181071842,Ben Gong's Tea,[ Minuman ],True,-6.174737,106.789658," Neo Soho Mall, Lantai 3A, Open Kitchen Jl. Letjen S. Parman, Slipi, Jakarta Barat ", Di bawah Rp. 50.000 /orang ,3.79,4.3,3.6,3.5,3.7,3.9,Senin - Minggu (10:00 - 22:00),"Visa,Master,Debet,Go-pay,Ovo,Dana",no,no,no,no,no,yes,no,no,yes,no,no
216,1625022193748426,Wisdom Coffee n Waffle,[ Kafe ],False,-6.175894,106.715233," Ruko City Walk, Blok C No. 5 Jl. Kresek Raya, Cengkareng, Jakarta Barat ", Di bawah Rp. 50.000 /orang ,4.23,3.8,4.0,4.2,5.0,4.2,"Selasa - Kamis (09:00 - 22:00), Jumat - Minggu (09:00 - 22:30), Senin Tutup","Tunai,Visa,Master,Debet",yes,yes,yes,yes,no,yes,no,yes,yes,no,no
217,162502219752168,Provence,[ Toko Roti ],False,-6.187858,106.738718," St Moritz Mall (Lippo Mall Puri), Lantai Lower Ground Jl. Puri Indah Boulevard Blok U1, Puri, Jakarta Barat ", Di bawah Rp. 50.000 /orang ,4.02,4.3,3.5,4.0,4.1,4.2,Senin - Minggu (10:00 - 22:00),"Tunai,Debet",no,no,no,no,no,yes,no,no,yes,no,no
218,1625022202466423,Bou Bakery & Dining,[ Kafe ],False,-6.188502,106.738946," St Moritz Mall (Lippo Mall Puri), Lantai Ground Jl. Puri Indah Boulevard Blok U1, Puri, Jakarta Barat ", Rp. 100.000 - Rp. 200.000 /orang ,4.6,4.3,4.7,4.3,5.0,4.7,"Senin - Kamis (12:00 - 20:30), Jumat - Minggu (11:30 - 21:00)","Tunai,Visa,Master,Debet",yes,no,yes,yes,no,yes,yes,yes,yes,yes,no
219,162502220446928,Yells Steak,[ Barat ],True,-6.179997,106.709741," Ruko Food City, No. 111, Green Lake City Jl. West Europe Boulevard, Cengkareng, Jakarta Barat ", Rp. 50.000 - Rp. 100.000 /orang ,4.05,4.0,4.1,4.0,4.3,3.9,"Senin - Kamis (12:00 - 21:00), Jumat (12:00 - 22:00), Sabtu - Minggu (11:00 - 22:00)","Tunai,Visa,Master,Debet",yes,no,yes,no,no,no,no,yes,yes,yes,no
220,1625022208123082,Bakmi Effata,[ Indonesia ],False,-6.201864,106.78149," Universitas Bina Nusantara, Foodcourt Jl. Anggrek Raya No. 27, Kebon Jeruk, Jakarta Barat ", Di bawah Rp. 50.000 /orang ,3.86,4.3,3.2,4.6,3.9,3.4,"Senin - Sabtu (08:30 - 16:00), Minggu Tutup",Tunai,no,no,no,no,no,yes,no,no,yes,no,no
221,1625022212625861,The Harvest,[ Toko Kue ],False,-6.200083,106.769391," Jl. Panjang No. 19, Kebon Jeruk, Jakarta Barat ", Rp. 100.000 - Rp. 200.000 /orang ,3.97,3.9,3.9,4.0,3.9,4.1,Senin - Minggu (08:00 - 22:00),"Tunai,Visa,Master,Debet",no,yes,no,no,no,yes,no,yes,yes,no,no
222,1625022218937377,Bottlenose Shack,[ Kafe ],False,-6.187909,106.733866," Puri Indah Mall Expansion, Lantai Ground Jl. Puri Indah Raya, Puri, Jakarta Barat ", Rp. 100.000 - Rp. 200.000 /orang ,4.05,4.0,4.3,3.8,4.0,4.3,Senin - Minggu (10:00 - 22:00),"Tunai,Visa,Master,Debet",yes,no,yes,yes,no,yes,no,yes,yes,yes,no
223,1625022222615604,Sushi Go!,[ Jepang ],False,-6.188093,106.73887," St Moritz Mall (Lippo Mall Puri), Lantai Lower Ground, Takeshita Street Jl. Puri Indah Boulevard Blok U1, Puri, Jakarta Barat ", Rp. 50.000 - Rp. 100.000 /orang ,3.88,4.0,3.7,4.0,3.9,4.0,Senin - Minggu (10:00 - 22:00),"Tunai,Visa,Master,Debet",no,no,no,no,no,no,no,no,yes,no,no
224,1625022231284183,Macroni Tei Coffee,[ Kafe ],False,-6.19053,106.765604," Ruko Sastra Graha, No. 1 Jl. Raya Perjuangan Kav. 21 No. 4 - 6, Kebon Jeruk, Jakarta Barat ( Alamat Lama: Jl. Kebon Jeruk Raya No. 11, Kebon Jeruk, Jakarta Barat ) ", Rp. 50.000 - Rp. 100.000 /orang ,3.91,3.9,4.1,3.6,3.9,4.1,Senin - Minggu (07:00 - 19:00),"Tunai,Visa,Master,Debet",yes,no,yes,yes,no,yes,no,yes,yes,no,no
225,1625022236694787,Bakmi GM,[ Indonesia ],False,-6.188311,106.734137," Puri Indah Mall, Lantai 1 Jl. Puri Indah Raya, Puri, Jakarta Barat ", Di bawah Rp. 50.000 /orang ,3.84,4.2,3.4,4.0,4.0,3.6,Senin - Minggu (10:00 - 20:30),"Tunai,Visa,Master,Debet",no,yes,no,no,no,yes,no,yes,yes,no,no
226,1625022245484994,Dum Dum Thai Drinks,[ Minuman ],False,-6.188686,106.738993," St Moritz Mall (Lippo Mall Puri), Lantai Lower Ground Jl. Puri Indah Boulevard Blok U1, Puri, Jakarta Barat ( Alamat Lama: St Moritz Mall (Lippo Mall Puri), Lantai 1, Jl. Puri Indah Boulevard Blok U1, Puri, Jakarta Barat ) ", Di bawah Rp. 50.000 /orang ,3.92,4.5,3.2,4.2,3.8,3.9,Senin - Minggu (10:00 - 21:00),"Tunai,Visa,Master,Debet,Go-pay,Ovo",no,no,no,no,no,yes,no,no,yes,no,no
227,1625022250919379,GRIND & BREW,[ Kafe ],False,-6.183648,106.706542," Ruko Colosseum, No. 1 - 2, Green Lake City Jl. Green Lake City Boulevard, Cengkareng, Jakarta Barat ", Rp. 50.000 - Rp. 100.000 /orang ,3.85,3.7,4.2,3.6,3.8,4.0,"Senin - Kamis (10:00 - 22:00), Jumat - Minggu (10:00 - 24:00)","Tunai,Visa,Master,Debet",yes,no,yes,no,no,no,no,yes,yes,yes,no
228,1625022259026958,RUTSU Dessert Factory,[ Dessert ],False,-6.185491,106.702837," Ruko Cordoba, Blok B No. 3, Green Lake City Jl. Green Lake City Boulevard, Cengkareng, Jakarta Barat ", Di bawah Rp. 50.000 /orang ,4.53,4.7,4.3,4.7,4.7,4.3,Senin - Minggu (10:00 - 22:00),"Tunai,Debet",yes,no,yes,yes,no,yes,no,yes,yes,no,no
229,1625022261235861,Kedai Kopi Aceh,[ Indonesia ],False,-6.152879,106.797154," Glow Tower, Komplek Ruko Season City, Blok F No. 1 Jl. Prof. Dr. Latumenten No. 33, Latumenten, Jakarta Barat ", Rp. 50.000 - Rp. 100.000 /orang ,4.4,4.8,4.5,3.8,4.8,4.3,Senin - Minggu (07:00 - 23:00),"Tunai,Visa,Master,Debet",yes,no,yes,yes,no,no,no,no,yes,yes,no
230,162502226420362,Kopi Kenangan,[ Minuman ],False,-6.173875,106.788144," Ruko Tanjung Duren Square, No. 1D Jl. Tanjung Duren Raya, Tanjung Duren, Jakarta Barat ", Di bawah Rp. 50.000 /orang ,4.2,4.6,3.8,4.4,4.0,4.2,Senin - Minggu (07:00 - 22:00),Tunai,no,no,no,no,no,yes,no,no,yes,no,no
231,1625022267049259,Ayam Bakar Kambal,[ Indonesia ],False,-6.1744016,106.7834643," Jl. Tanjung Duren Raya No. 59, Tanjung Duren, Jakarta Barat ", Di bawah Rp. 50.000 /orang ,3.91,4.4,3.5,4.4,3.8,3.6,24 Jam,Tunai,yes,yes,yes,no,yes,yes,no,yes,no,no,no
232,1625022271410448,Raffa Cafe & Coffee,[ Kafe ],True,-6.1839228,106.7002008," Ruko CBD, Blok N No. 8, Green Lake City Jl. Green Lake City Boulevard, Cengkareng, Jakarta Barat ", Di bawah Rp. 50.000 /orang ,4.13,4.2,4.3,3.8,4.2,4.2,Senin - Minggu (10:00 - 21:00),"Tunai,Visa,Master,Debet,Go-pay,Ovo,Dana",yes,no,yes,no,no,yes,yes,yes,yes,no,no
233,1625022274755408,Wingstop,[ Barat ],False,-6.188207,106.738852," St Moritz Mall (Lippo Mall Puri), Lantai 1 Jl. Puri Indah Boulevard Blok U1, Puri, Jakarta Barat ", Rp. 50.000 - Rp. 100.000 /orang ,3.81,4.3,3.5,4.0,3.7,3.6,Senin - Minggu (10:00 - 22:00),"Tunai,Visa,Master,Debet",no,no,no,no,no,yes,no,no,yes,no,no
234,1625022283994131,Ikkudo Ichi,[ Jepang ],False,-6.177673,106.791106," Central Park, Lantai 3 Jl. Letjen S. Parman, Slipi, Jakarta Barat ", Rp. 50.000 - Rp. 100.000 /orang ,3.78,4.3,3.4,3.7,3.7,3.7,Senin - Minggu (10:00 - 22:00),"Tunai,Visa,Master,Debet",no,no,no,no,no,no,no,no,yes,no,no
235,162502229364702,Clover Bakery,[ Toko Roti dan Kue ],False,-6.158934,106.819139," Jl. Hayam Wuruk No. 47, Hayam Wuruk, Jakarta Barat ", Di bawah Rp. 50.000 /orang ,4.05,4.4,3.4,4.5,4.0,4.0,Senin - Minggu (09:00 - 21:00),"Tunai,Visa,Master,Debet",no,no,no,no,no,yes,no,no,no,no,no
236,1625022298048262,Tous Les Jours,[ Toko Roti dan Kue ],False,-6.177962,106.792517," Mall Taman Anggrek, Lantai 4 Jl. Letjen S. Parman, Slipi, Jakarta Barat ", Di bawah Rp. 50.000 /orang ,3.82,4.2,3.6,4.0,3.7,3.7,Senin - Minggu (10:00 - 22:00),"Tunai,Visa,Master,Debet",yes,no,no,no,no,yes,no,yes,yes,no,no
237,1625022305855114,Onezo,[ Bubble Tea ],False,-6.187876,106.733948," Puri Indah Mall Expansion, Lantai Ground Jl. Puri Indah Raya, Puri, Jakarta Barat ", Di bawah Rp. 50.000 /orang ,3.87,4.0,3.6,3.7,4.0,4.0,Senin - Minggu (10:00 - 22:00),"Tunai,Visa,Master,Debet",no,no,yes,yes,no,yes,no,no,yes,no,no
238,1625022313264363,Kopi Soe,[ Kafe ],False,-6.185659,106.703517," Ruko Cordoba, Blok E No. 23, Green Lake City Jl. Green Lake City Boulevard, Cengkareng, Jakarta Barat ", Di bawah Rp. 50.000 /orang ,3.85,4.2,3.8,3.8,3.7,3.7,"Senin - Kamis (08:00 - 22:00), Jumat - Minggu (08:00 - 23:00)","Tunai,Debet",yes,no,yes,yes,no,yes,no,yes,yes,no,no
239,1625022320347367,Starbucks Coffee,[ Kafe ],False,-6.1783,106.79208," Mall Taman Anggrek, Lantai Ground Jl. Letjen S. Parman, Slipi, Jakarta Barat ", Rp. 50.000 - Rp. 100.000 /orang ,3.89,4.0,4.0,3.6,4.1,3.8,Senin - Minggu (10:00 - 22:00),"Tunai,Visa,Master,Debet",yes,no,no,no,no,yes,no,no,yes,no,no
240,1625022325468292,SAKE,[ Minuman ],False,-6.166877,106.724324," Jl. Duri Kosambi No. 5D, Cengkareng, Jakarta Barat ", Di bawah Rp. 50.000 /orang ,4.11,4.3,3.4,4.6,4.1,4.1,Senin - Minggu (11:00 - 22:00),Tunai,no,no,yes,no,no,yes,no,no,yes,no,no
241,162502232835353,Sentosa Seafood,[ Indonesia ],False,-6.182617,106.728869," Jl. Lingkar Luar Barat (Depan Marketing Gallery Puri Mansion), Puri, Jakarta Barat ", Rp. 50.000 - Rp. 100.000 /orang ,3.87,4.1,3.7,4.1,3.8,3.6,Senin - Minggu (11:00 - 22:00),"Tunai,Visa,Master,Debet",yes,no,yes,yes,no,yes,yes,yes,yes,yes,no
242,1625022334069018,Thien Thien Lai,[ China ],False,-6.141152,106.812887," Pancoran Chinatown Point, Lantai Ground Jl. Pancoran No. 42A, Glodok, Jakarta Barat ", Rp. 100.000 - Rp. 200.000 /orang ,4.53,4.7,4.7,4.0,4.7,4.7,"Senin - Jumat (10:00 - 21:00), Sabtu - Minggu (07:00 - 21:00)",Tunai,yes,no,yes,yes,no,no,yes,yes,yes,no,no
243,1625022337421926,Ban Ban,[ Kafe ],True,-6.188207,106.738852," St Moritz Mall (Lippo Mall Puri), Lantai 1 Jl. Puri Indah Boulevard Blok U1, Puri, Jakarta Barat ", Di bawah Rp. 50.000 /orang ,3.77,4.1,3.5,3.6,3.8,3.9,Senin - Minggu (10:00 - 21:00),"Tunai,Debet,Go-pay,Ovo,Dana",yes,no,no,no,no,yes,no,no,yes,no,no
244,1625022347975905,8th Bean Cafe,[ Kafe ],True,-6.16599,106.795194," Jl. Dr. Susilo Raya No. 12, Grogol, Jakarta Barat ", Di bawah Rp. 50.000 /orang ,3.89,3.9,4.1,4.0,3.5,4.0,"Senin - Kamis (11:00 - 24:00), Jumat - Minggu (11:00 - 01:00)",Tunai,yes,no,yes,yes,no,yes,no,yes,yes,no,no
245,1625022354005557,Dutch Kitchen,[ Snack ],True,-6.16847,106.78686," Mall Ciputra Jakarta, Lantai 5, Momokino Jl. Arteri S. Parman, Grogol, Jakarta Barat ( Alamat Lama: Mall Ciputra Jakarta, Lantai 4, Jl. Arteri S. Parman, Grogol, Jakarta Barat ) ", Di bawah Rp. 50.000 /orang ,4.04,4.1,3.7,4.1,4.2,4.1,not listed,Tunai,no,no,no,no,no,yes,no,no,yes,no,no
246,1625022359411423,Portal Coffee & Eatery,[ Kafe ],False,-6.191256,106.785395," Jl. Kemanggisan Raya No. 64, Kemanggisan, Jakarta Barat ", Di bawah Rp. 50.000 /orang ,4.16,4.4,4.2,4.2,3.6,4.4,"Senin - Kamis (09:00 - 23:00), Jumat - Minggu (09:00 - 24:00)","Tunai,Visa,Master,Debet",yes,no,yes,yes,no,yes,no,yes,yes,no,no
247,162502236198334,Haagen - Dazs,[ Es Krim ],False,-6.177436,106.790544," Central Park, Lantai Ground Jl. Letjen S. Parman, Slipi, Jakarta Barat ", Rp. 50.000 - Rp. 100.000 /orang ,3.89,4.4,3.6,3.5,4.0,4.0,Senin - Minggu (10:00 - 22:00),"Tunai,Visa,Master,Debet",yes,no,yes,yes,no,yes,no,yes,yes,no,no
248,1625022367287159,Waroenk Kito,[ Indonesia ],True,-6.163663,106.722797," Ruko Taman Semanan Indah, Blok C No. 42 Jl. Taman Semanan Indah (Dharma Kencana), Cengkareng, Jakarta Barat ", Di bawah Rp. 50.000 /orang ,3.98,4.2,3.6,4.6,3.9,3.7,"Senin - Minggu (10:00 - 14:30, 16:30 - 22:00)","Tunai,Debet",yes,yes,yes,yes,no,yes,no,yes,yes,no,no
249,1625022371860398,Manatea,[ Es Krim ],True,-6.188093,106.73887," St Moritz Mall (Lippo Mall Puri), Lantai Lower Ground, Takeshita Street Jl. Puri Indah Boulevard Blok U1, Puri, Jakarta Barat ", Di bawah Rp. 50.000 /orang ,3.89,4.3,3.1,4.0,4.1,4.0,Senin - Minggu (10:00 - 22:00),Tunai,no,no,no,no,no,yes,no,no,yes,no,no
250,1625022379813088,Eatlah,,False,-6.175312,106.783734," Jl. Tanjung Duren Raya No. 71, Tanjung Duren, Jakarta Barat ( Alamat Lama: PHX Grogol, Lantai 1, Jl. Dr. Susilo Raya No. 342, Grogol, Jakarta Barat ) ", Rp. 50.000 - Rp. 100.000 /orang ,3.78,4.3,3.4,3.9,3.7,3.7,Senin - Minggu (10:00 - 22:00),"Tunai,Visa,Master,Debet,Go-pay,Ovo,Dana",no,no,no,no,no,yes,no,no,yes,no,no
251,1625022392973722,Carl's Jr.,[ Barat ],False,-6.187858,106.738718," St Moritz Mall (Lippo Mall Puri), Lantai Lower Ground Jl. Puri Indah Boulevard Blok U1, Puri, Jakarta Barat ", Rp. 50.000 - Rp. 100.000 /orang ,3.88,4.2,3.5,4.0,4.0,3.8,Senin - Minggu (10:00 - 22:00),"Tunai,Visa,Master,Debet",yes,no,no,no,no,yes,no,yes,yes,no,no
252,1625022399259182,Lao Lao Huo Guo,[ China ],True,-6.187183,106.755152," Jl. Pesanggrahan No. 168, Puri, Jakarta Barat ", Rp. 100.000 - Rp. 200.000 /orang ,3.95,4.2,4.2,3.1,4.2,4.1,Senin - Minggu (11:00 - 21:00),"Tunai,Visa,Master,Debet",yes,no,no,no,no,no,yes,yes,yes,yes,no
253,1625022404896607,Sate Khas Senayan,[ Indonesia ],False,-6.177673,106.791106," Central Park, Lantai Lower Ground Jl. Letjen S. Parman, Slipi, Jakarta Barat ", Rp. 50.000 - Rp. 100.000 /orang ,3.83,4.2,3.8,3.2,3.9,4.0,Senin - Minggu (11:00 - 21:00),"Tunai,Visa,Master,Debet,Go-pay,Ovo,Dana",yes,no,no,no,no,yes,no,yes,yes,no,no
254,1625022413649566,Starbucks Coffee,[ Kafe ],False,-6.137602,106.814559," Stasiun Kota Jl. Stasiun Kota, Kota, Jakarta Barat ", Rp. 50.000 - Rp. 100.000 /orang ,3.97,4.1,3.9,3.8,4.3,3.8,"Senin - Jumat (06:00 - 21:00), Sabtu - Minggu (07:00 - 21:00)",Tunai,yes,no,yes,yes,no,yes,no,no,yes,no,no
255,1625022418756287,WM Cafe,[ Kafe ],False,-6.12431,106.710766," Ruko Sixth Avenue, Blok J1A No. 8 Jl. Raya Citra Garden 6, Cengkareng, Jakarta Barat ", Di bawah Rp. 50.000 /orang ,4.09,4.0,4.3,3.9,4.1,4.1,"Senin - Kamis (12:00 - 23:00), Jumat - Sabtu (11:00 - 24:00), Minggu Tutup","Tunai,Visa,Master,Debet",yes,no,yes,yes,no,yes,no,yes,yes,no,no
256,1625022421450912,Jin Mu Dumpling Restaurant,[ China ],False,-6.188207,106.738852," St Moritz Mall (Lippo Mall Puri), Lantai 1 Jl. Puri Indah Boulevard Blok U1, Puri, Jakarta Barat ", Rp. 50.000 - Rp. 100.000 /orang ,3.93,4.0,4.2,3.3,4.2,4.0,Senin - Minggu (10:00 - 22:00),"Tunai,Visa,Master,Debet",yes,no,no,no,no,no,yes,yes,yes,yes,no
257,162502242671312,Gandy Steak House,[ Barat ],False,-6.156853,106.818706," Jl. Hayam Wuruk No. 73, Hayam Wuruk, Jakarta Barat ", Di atas Rp. 200.000 /orang ,3.87,4.1,3.9,3.7,3.9,3.8,Senin - Minggu (10:30 - 23:00),"Tunai,Visa,Master,Debet",no,no,no,no,no,yes,no,yes,yes,yes,no
258,1625022433134834,Kedai Es Pisang Ijo Pemuda,[ Dessert ],False,-6.169715,106.782902," Jl. Tanjung Duren Utara IV Blok O No. 468A - B, Tanjung Duren, Jakarta Barat ", Di bawah Rp. 50.000 /orang ,3.85,4.1,3.5,3.9,4.0,3.8,Senin - Minggu (11:00 - 23:00),Tunai,no,no,yes,yes,no,yes,no,yes,yes,no,no
259,1625022440185293,Shu Guo Yin Xiang,[ China ],False,-6.147635,106.823858," Komplek THR Lokasari, Blok B No. 6 - 7 Jl. Mangga Besar Raya, Mangga Besar, Jakarta Barat ", Di atas Rp. 200.000 /orang ,3.84,4.4,3.8,3.4,3.7,3.9,Senin - Minggu (11:00 - 16:00),"Tunai,Visa,Master,Debet",yes,no,yes,no,no,no,no,yes,yes,yes,no
260,1625022447134844,Hoghock,[ China ],False,-6.169702,106.7671098," Jl. Surya Wijaya Blok AA2 No. 31A, Green Ville, Jakarta Barat ( Alamat Lama: XYZ District, Jl. Surya Wijaya No. 8, Green Ville, Jakarta Barat ) ", Rp. 50.000 - Rp. 100.000 /orang ,3.81,4.5,3.3,3.9,3.8,3.6,Senin - Minggu (10:00 - 22:00),"Tunai,Visa,Master,Debet",yes,no,no,no,no,no,no,yes,yes,yes,no
261,1625022454931268,The Harvest,[ Toko Kue ],False,-6.1484198,106.8263062," Jl. Mangga Besar Raya No. 107A, Mangga Besar, Jakarta Barat ", Rp. 100.000 - Rp. 200.000 /orang ,3.9,4.1,3.9,3.7,3.9,3.9,Senin - Minggu (08:00 - 22:00),"Tunai,Visa,Master,Debet",no,yes,no,no,no,yes,no,no,yes,no,no
262,1625022460391882,Bakmi Bintang Gading,[ Indonesia ],False,-6.17414,106.788208," Apartemen Mediterania Garden Residences 1, Tower B Jl. Tanjung Duren Raya, Tanjung Duren, Jakarta Barat ", Rp. 50.000 - Rp. 100.000 /orang ,3.82,4.2,3.5,4.0,3.8,3.7,Senin - Minggu (07:00 - 24:00),"Tunai,Debet",yes,no,yes,no,no,no,no,yes,yes,no,no
263,1625022466599462,Kedai Kita,[ Italia ],False,-6.197345,106.752566," Jl. Meruya Ilir No. 1, Meruya, Jakarta Barat ", Rp. 50.000 - Rp. 100.000 /orang ,3.78,4.1,3.6,3.9,3.7,3.7,Senin - Minggu (11:00 - 20:00),"Tunai,Visa,Master,Debet",yes,no,yes,yes,no,yes,no,yes,yes,no,no
264,162502247610318,Talaga Sampireun,[ Indonesia ],True,-6.168718,106.728259," Jl. Lingkar Luar Barat No. 17, Cengkareng, Jakarta Barat ", Rp. 100.000 - Rp. 200.000 /orang ,3.79,3.7,4.5,3.3,3.7,3.8,Senin - Minggu (11:00 - 22:00),"Tunai,Visa,Master,Debet,Go-pay,Ovo",yes,yes,yes,yes,no,yes,yes,yes,yes,yes,no
265,1625022485673258,Sour Sally,[ Yoghurt ],False,-6.187932,106.733875," Puri Indah Mall Expansion, Lantai Ground Jl. Puri Indah Raya, Puri, Jakarta Barat ", Di bawah Rp. 50.000 /orang ,3.8,4.4,3.4,3.8,3.9,3.6,"Senin - Kamis (10:00 - 22:00), Jumat - Minggu (10:00 - 23:00)","Tunai,Visa,Master,Debet",no,no,yes,no,no,yes,no,no,yes,no,no
266,1625022496170183,Starbucks Coffee,[ Kafe ],False,-6.187896,106.739126," St Moritz Mall (Lippo Mall Puri), Lantai Ground Jl. Puri Indah Boulevard Blok U1, Puri, Jakarta Barat ", Rp. 50.000 - Rp. 100.000 /orang ,4.0,3.8,4.3,3.7,4.2,4.0,Senin - Minggu (07:00 - 22:00),"Tunai,Visa,Master,Debet",yes,no,yes,yes,no,yes,no,no,yes,no,no
267,1625022499752198,Bakmi Suikiaw Afung,[ China ],False,-6.143857,106.797546," Pasar Kampung Bebek (Bagian Belakang) Jl. Angke Jaya XIII Gg. 12 No. 3, Angke, Jakarta Barat ", Di bawah Rp. 50.000 /orang ,4.53,4.7,4.0,5.0,4.3,4.7,"Kamis - Minggu (06:00 - 12:00), Senin - Rabu Tutup",Tunai,no,no,yes,no,no,no,no,no,no,no,no
268,1625022501590871,Midori,[ Jepang ],True,-6.190704,106.744926," Ruko Puri Kencana, Blok J1 No. 2R Jl. Puri Kencana, Puri, Jakarta Barat ", Rp. 100.000 - Rp. 200.000 /orang ,4.04,3.8,4.1,3.8,4.4,4.1,Senin - Minggu (10:00 - 21:00),"Tunai,Visa,Master,Debet",yes,no,no,no,no,no,no,yes,yes,no,no
269,1625022504799529,Logika Coffee,[ Kafe ],False,-6.200779,106.784918," Jl. KH. Syahdan No. 105 (Depan Binus Syahdan), Palmerah, Jakarta Barat ( Alamat Lama: Ruko Sixth Avenue, West Land, Blok H6 No. 7, Jl. Raya Citra Garden 6, Cengkareng, Jakarta Barat ) ", Di bawah Rp. 50.000 /orang ,4.0,4.2,3.2,4.3,4.3,4.1,"Senin - Sabtu (09:00 - 18:00), Minggu Tutup","Tunai,Debet",no,no,yes,no,no,yes,no,no,no,no,no
270,162502250905355,Shereen Cakes & Bread,[ Toko Roti dan Kue ],False,-6.187353,106.703302," Ruko Cordoba, Blok F No. 6, Green Lake City Jl. Green Lake City Boulevard, Cengkareng, Jakarta Barat ", Di bawah Rp. 50.000 /orang ,4.3,4.8,3.5,5.0,4.0,4.3,Senin - Minggu (07:00 - 22:00),"Tunai,Visa,Master,Debet",no,no,no,no,no,yes,no,no,yes,no,no
271,1625022511785555,Bakmi GM,[ Indonesia ],False,-6.154807,106.817708," Jl. Gajah Mada Raya No. 92, Gajah Mada, Jakarta Barat ", Di bawah Rp. 50.000 /orang ,3.81,4.1,3.4,3.9,3.9,3.7,Senin - Minggu (07:00 - 21:00),"Tunai,Visa,Debet",no,yes,no,no,no,yes,no,yes,no,no,no
272,1625022522880942,Magal Korean BBQ,[ Korea ],False,-6.191256,106.753418," Jl. Taman Aries No. 3D, Meruya, Jakarta Barat ", Rp. 100.000 - Rp. 200.000 /orang ,3.91,4.1,3.8,3.7,3.9,4.1,Senin - Minggu (11:30 - 22:00),"Tunai,Visa,Master,Debet",yes,no,yes,no,no,no,yes,yes,yes,yes,no
273,1625022530692331,Kopi Janji Jiwa,[ Kafe ],False,-6.218354,106.754644," Jl. Joglo Raya No. 10C (Seberang McDonald's), Meruya, Jakarta Barat ", Di bawah Rp. 50.000 /orang ,4.13,4.3,3.8,4.0,4.3,4.2,Senin - Minggu (10:00 - 22:00),Tunai,no,no,yes,yes,no,yes,no,no,yes,no,no
274,1625022534127548,Go! Curry,"[ Thailand,Jepang,India ]",False,-6.174832,106.789932," Neo Soho Mall, Lantai 3A Jl. Letjen S. Parman, Slipi, Jakarta Barat ", Rp. 100.000 - Rp. 200.000 /orang ,3.83,4.1,3.9,3.2,3.8,4.1,Senin - Minggu (10:00 - 22:00),"Tunai,Visa,Master,Debet",yes,no,no,no,no,yes,no,yes,yes,no,no
275,1625022542133382,Imperial Kitchen & Dimsum,[ China ],True,-6.168475,106.786862," Mall Ciputra Jakarta, Lantai Lower Ground Jl. Arteri S. Parman, Grogol, Jakarta Barat ", Rp. 50.000 - Rp. 100.000 /orang ,3.77,4.0,3.6,3.8,3.5,3.9,Senin - Minggu (10:00 - 21:00),"Tunai,Visa,Master,Debet,Go-pay,Ovo,Dana",no,no,no,no,no,yes,no,no,yes,no,no
276,162502255204378,Seribu Rasa,[ Indonesia ],False,-6.177673,106.791106," Central Park, Lantai 1 Jl. Letjen S. Parman, Slipi, Jakarta Barat ", Rp. 100.000 - Rp. 200.000 /orang ,3.94,3.9,4.5,2.9,4.2,4.2,Senin - Minggu (11:00 - 22:00),"Tunai,Visa,Master,Debet",yes,yes,no,no,no,yes,yes,yes,yes,yes,no
277,1625022557939561,Blacklisted,[ Barat ],True,-6.188555,106.733846," Puri Indah Mall Expansion, Lantai Ground Jl. Puri Indah Raya, Puri, Jakarta Barat ", Rp. 100.000 - Rp. 200.000 /orang ,3.8,4.1,4.0,3.5,3.6,3.9,Senin - Minggu (07:30 - 22:00),"Tunai,Visa,Master,Debet",yes,no,yes,yes,no,yes,no,yes,yes,no,no
278,1625022564608251,Sushi Go!,[ Jepang ],False,-6.178051,106.790329," Central Park, Lantai Lower Ground Jl. Letjen S. Parman, Slipi, Jakarta Barat ", Rp. 50.000 - Rp. 100.000 /orang ,4.0,4.3,3.8,4.1,3.9,4.0,"Senin - Jumat (11:00 - 20:00), Sabtu - Minggu (10:00 - 21:00)","Tunai,Visa,Master,Debet",no,no,no,no,no,yes,no,no,yes,no,no
279,1625022568651049,Up Lane Coffee,[ Kafe ],False,-6.154946,106.788403," Jl. Jelambar Baru Raya No. 6D, Jelambar, Jakarta Barat ", Di bawah Rp. 50.000 /orang ,4.03,3.8,4.3,4.0,4.0,4.1,Senin - Minggu (11:00 - 23:00),"Tunai,Debet",yes,no,yes,yes,no,yes,no,yes,yes,no,no
280,1625022571313562,Tth Tea Bar,[ Kafe ],True,-6.173972,106.782622," Jl. Tanjung Duren Barat I No. 11, Tanjung Duren, Jakarta Barat ", Di bawah Rp. 50.000 /orang ,4.03,4.3,4.1,3.6,4.1,4.0,"Senin - Kamis (10:00 - 22:00), Jumat - Minggu (10:00 - 23:00)","Tunai,Ovo",yes,no,yes,yes,no,yes,no,no,no,no,no
281,1625022574530285,Becca's Bakehouse,[ Kafe ],False,-6.1798843,106.7244148," Harris Suites Puri, Lantai 1 Jl. Lingkar Luar Barat, Puri, Jakarta Barat ", Rp. 50.000 - Rp. 100.000 /orang ,4.53,4.7,4.0,4.7,4.7,4.7,Senin - Minggu (08:00 - 18:00),Tunai,no,no,no,no,no,yes,no,no,yes,no,no
282,1625022576328078,Bar.B.Q Plaza,[ Thailand ],False,-6.177673,106.791106," Central Park, Lantai Lower Ground Jl. Letjen S. Parman, Slipi, Jakarta Barat ", Rp. 100.000 - Rp. 200.000 /orang ,3.98,3.9,4.0,3.7,4.4,3.9,Senin - Minggu (10:00 - 22:00),"Tunai,Visa,Master,Debet",yes,no,no,no,no,yes,no,yes,yes,yes,no
283,1625022581902141,Starbucks Coffee,[ Kafe ],False,-6.190977,106.767875," AKR Tower, Lantai Ground Jl. Raya Perjuangan, Kebon Jeruk, Jakarta Barat ", Rp. 50.000 - Rp. 100.000 /orang ,3.98,3.8,4.1,3.6,4.1,4.3,Senin - Minggu (07:00 - 20:00),"Tunai,Visa,Master,Debet",no,no,yes,no,no,yes,no,no,yes,no,no
284,1625022585848448,Goffee,[ Kafe ],False,-6.137013,106.73218," Ruko Mutiara Taman Palem, Blok A17 No. 2 Jl. Boulevard Raya, Cengkareng, Jakarta Barat ", Di bawah Rp. 50.000 /orang ,4.12,4.4,4.4,3.8,4.0,4.0,"Senin - Jumat (08:00 - 22:00), Sabtu - Minggu (08:00 - 23:00)",Tunai,yes,no,yes,yes,no,yes,no,yes,yes,no,no
285,1625022588931166,D' Cost,[ Indonesia ],False,-6.1512953,106.7143548," Mall Daan Mogot, Lantai 2 Jl. Daan Mogot, Daan Mogot, Jakarta Barat ", Rp. 50.000 - Rp. 100.000 /orang ,4.2,4.2,4.2,4.0,4.4,4.2,Senin - Minggu (10:30 - 21:00),"Tunai,Visa,Master,Debet",yes,no,no,no,no,yes,no,yes,yes,no,no
286,1625022592433326,Ban Ban,[ Dessert ],True,-6.1878594,106.7393969," St Moritz Mall (Lippo Mall Puri), Lantai Lower Ground Jl. Puri Indah Boulevard Blok U1, Puri, Jakarta Barat ", Di bawah Rp. 50.000 /orang ,3.93,4.2,3.4,4.1,3.8,4.3,Senin - Minggu (10:00 - 21:00),"Tunai,Go-pay,Ovo,Dana",no,no,no,no,no,yes,no,no,yes,no,no
287,1625022597419129,Ayam Gepuk Pak Gembus,[ Indonesia ],False,-6.173855,106.787207," Jl. Tanjung Duren Raya No. 5C (Sylvie Bika Ambon Medan), Tanjung Duren, Jakarta Barat ", Di bawah Rp. 50.000 /orang ,3.88,4.3,3.3,4.6,3.8,3.6,"Senin - Kamis (12:00 - 22:00), Jumat (13:00 - 23:00), Sabtu - Minggu (12:00 - 22:00)",Tunai,no,no,yes,no,no,yes,no,no,no,no,no
288,162502260274073,Shaburi Shabu Shabu,[ Jepang ],False,-6.188311,106.734137," Puri Indah Mall, Lantai 2 Jl. Puri Indah Raya, Puri, Jakarta Barat ", Di atas Rp. 200.000 /orang ,3.95,4.3,3.7,3.8,4.0,4.0,Senin - Minggu (10:00 - 22:00),"Tunai,Visa,Master,Debet",no,no,no,no,no,yes,no,yes,yes,no,no
289,1625022608072569,Tous Les Jours Cafe,[ Kafe ],False,-6.177743,106.791048," Central Park, Lantai 1 Jl. Letjen S. Parman, Slipi, Jakarta Barat ", Di bawah Rp. 50.000 /orang ,3.78,4.0,3.8,3.6,3.6,3.9,Senin - Minggu (10:00 - 21:00),"Tunai,Visa,Master,Debet,Go-pay,Ovo",yes,yes,no,no,no,yes,no,yes,yes,no,no
290,1625022616969368,Bakso Belitung,[ Indonesia ],False,-6.1310138,106.7340191," Ruko Hawaii, Blok A No. 115 - 116 Jl. Boulevard Raya, Cengkareng, Jakarta Barat ", Di bawah Rp. 50.000 /orang ,4.9,5.0,4.5,5.0,5.0,5.0,Senin - Minggu (09:00 - 21:00),"Tunai,Debet",no,yes,no,no,no,no,yes,yes,yes,yes,no
291,1625022620269047,Bakmi Keriting Siantar Singa,[ China ],False,-6.151274,106.787217," Jl. Jelambar Selatan III No. 8A, Jelambar, Jakarta Barat ", Di bawah Rp. 50.000 /orang ,4.9,5.0,4.5,5.0,5.0,5.0,"Senin - Sabtu (06:30 - 16:00), Minggu (06:30 - 14:00)",Tunai,no,no,yes,no,no,no,no,no,no,no,no
292,1625022622252373,Lekker Dan Kopi,[ Kafe ],False,-6.180296,106.783596," Jl. Tanjung Duren Raya No. 17B, Tanjung Duren, Jakarta Barat ", Di bawah Rp. 50.000 /orang ,3.82,4.1,3.5,3.8,3.8,3.8,Senin - Minggu (10:00 - 01:00),"Tunai,Debet",yes,no,yes,yes,no,yes,no,yes,yes,no,no
293,1625022628818787,KOI The,[ Kafe ],False,-6.18842,106.733968," Puri Indah Mall, Lantai 2 Jl. Puri Indah Raya, Puri, Jakarta Barat ", Di bawah Rp. 50.000 /orang ,3.85,4.0,3.9,3.8,3.8,3.8,Senin - Minggu (10:00 - 22:00),"Tunai,Visa,Master,Debet",no,no,no,no,no,yes,no,no,yes,no,no
294,1625022634460466,Hay Thien,[ China ],False,-6.12338,106.710409," Circle West, Citra Garden 6, Blok I1 No. C17 Jl. Raya Citra Garden 6, Cengkareng, Jakarta Barat ", Rp. 50.000 - Rp. 100.000 /orang ,4.25,4.5,4.3,4.3,4.3,4.0,Senin - Minggu (11:00 - 24:00),"Tunai,Visa,Master,Debet",yes,no,yes,yes,no,no,no,yes,yes,yes,no
295,1625022637032675,Waroenk Kenyank,[ Indonesia ],False,-6.144299,106.779391," Jl. Tubagus Angke No. 22F, Jelambar, Jakarta Barat ( Alamat Lama: Jl. Tubagus Angke No. 26D, Jelambar, Jakarta Barat ) ", Di bawah Rp. 50.000 /orang ,4.25,4.5,3.8,5.0,4.8,3.3,Senin - Minggu (11:00 - 01:00),"Tunai,Debet",yes,no,yes,yes,no,yes,no,yes,yes,no,no
296,1625022640597188,Genki Sushi,[ Jepang ],False,-6.188777,106.733591," Puri Indah Mall, Lantai Ground Jl. Puri Indah Raya, Puri, Jakarta Barat ", Rp. 100.000 - Rp. 200.000 /orang ,4.0,4.4,4.0,3.3,4.3,4.1,Senin - Minggu (10:00 - 22:00),"Tunai,Visa,Master,Debet",no,no,no,no,no,no,no,no,yes,no,no
297,1625022645885143,Ali Kopi Roastery,[ Kafe ],False,-6.146518,106.701617," Marketing Gallery Citra Living Citra 7 Ext Jl. Citra 7, Kalideres, Jakarta Barat ", Di bawah Rp. 50.000 /orang ,4.16,4.0,4.4,4.2,4.0,4.2,Senin - Minggu (07:00 - 20:00),Tunai,yes,no,yes,yes,no,yes,no,no,yes,no,no
298,1625022649747181,Warunk UpNormal,[ Indonesia ],False,-6.165905,106.794165," Jl. Dr. Susilo Raya No. 19, Grogol, Jakarta Barat ", Di bawah Rp. 50.000 /orang ,3.77,3.9,3.9,3.9,3.5,3.7,"Senin - Kamis (10:00 - 02:00), Jumat (13:30 - 02:00), Sabtu - Minggu (10:00 - 02:00)","Tunai,Visa,Master,Debet",yes,no,yes,yes,no,yes,yes,yes,yes,no,no
299,1625022658067963,Pempek Palembang Awan,[ Indonesia ],False,-6.180092,106.710033," Ruko Food City, No. 121, Green Lake City Jl. West Europe Boulevard, Cengkareng, Jakarta Barat ( Alamat Lama: Ruko Sentra Niaga, Blok A No. 5, Green Lake City, Jl. Green Lake City Boulevard, Cengkareng, Jakarta Barat ) ", Di bawah Rp. 50.000 /orang ,3.92,4.2,3.7,3.9,3.9,3.9,Senin - Minggu (09:00 - 21:00),"Tunai,Debet",yes,yes,no,no,no,yes,no,yes,yes,no,no
300,1625022662569541,Shihlin,[ Snack ],False,-6.177673,106.791106," Central Park, Lantai Lower Ground Jl. Letjen S. Parman, Slipi, Jakarta Barat ", Di bawah Rp. 50.000 /orang ,3.77,4.2,3.4,3.8,3.8,3.7,Senin - Minggu (10:00 - 22:00),"Tunai,Visa,Master,Debet",no,no,no,no,no,yes,no,no,yes,no,no
301,1625022671457398,Re.Juve,[ Minuman ],False,-6.177743,106.791048," Central Park, Lantai 3 Jl. Letjen S. Parman, Slipi, Jakarta Barat ", Di bawah Rp. 50.000 /orang ,3.85,4.6,3.4,3.2,3.8,4.3,Senin - Minggu (10:00 - 22:00),"Tunai,Visa,Master,Debet",no,no,no,no,no,yes,no,no,yes,no,no
302,1625022677673971,Cafe Batavia,"[ Indonesia,Barat ]",False,-6.134477,106.812714," Taman Fatahillah Jl. Pintu Besar Utara No. 14, Kota, Jakarta Barat ", Rp. 100.000 - Rp. 200.000 /orang ,3.86,3.8,4.4,2.9,4.1,4.1,"Senin - Kamis (08:30 - 24:00), Jumat (08:30 - 01:00), Sabtu (08:00 - 01:00), Minggu (08:00 - 24:00)","Tunai,Visa,Master,Debet",yes,no,yes,yes,no,yes,yes,yes,yes,yes,no
303,1625022685437829,Tio Ciu 78,[ China ],False,-6.14897,106.825287," Jl. Mangga Besar Raya No. 78A, Mangga Besar, Jakarta Barat ", Rp. 50.000 - Rp. 100.000 /orang ,3.83,4.3,3.5,4.0,3.7,3.6,Senin - Minggu (10:00 - 23:00),"Tunai,Debet",no,no,no,no,no,no,no,no,no,no,no
304,1625022690103078,Foodsomnia,[ Kafe ],False,-6.18005,106.78388," Jl. Tanjung Duren Raya No. 135A, Tanjung Duren, Jakarta Barat ", Di bawah Rp. 50.000 /orang ,3.85,4.1,3.6,4.0,3.9,3.7,Senin - Minggu (10:00 - 01:00),"Tunai,Visa,Master,Debet",yes,no,yes,yes,no,yes,no,yes,yes,no,no
305,1625022697510541,Fo Yu Coffee,[ Kafe ],False,-6.171797,106.782901," Jl. Tanjung Duren Utara IV No. 452, Tanjung Duren, Jakarta Barat ", Di bawah Rp. 50.000 /orang ,3.96,3.9,4.0,4.1,3.9,3.9,Senin - Minggu (08:00 - 22:00),Tunai,yes,no,yes,yes,no,yes,no,yes,yes,no,no
306,1625022701457494,Martabak Bandung 368,[ Indonesia ],True,-6.193546,106.776821," Jl. Gili Sampeng VI No. 10, Kebon Jeruk, Jakarta Barat ( Alamat Lama: Jl. Taman Daan Mogot III No. 1, Tanjung Duren, Jakarta Barat ) ", Di bawah Rp. 50.000 /orang ,3.98,4.8,3.2,4.0,4.0,3.9,"Senin - Kamis (11:00 - 24:00), Jumat - Sabtu (10:00 - 01:00), Minggu (11:00 - 24:00)",Tunai,no,no,yes,no,no,yes,no,no,no,no,no
307,1625022706094072,Xing Fu Tang,[ Bubble Tea ],False,-6.187799,106.738697," St Moritz Mall (Lippo Mall Puri), Lantai Lower Ground Jl. Puri Indah Boulevard Blok U1, Puri, Jakarta Barat ", Di bawah Rp. 50.000 /orang ,3.79,4.0,3.3,3.7,3.8,4.1,Senin - Minggu (10:00 - 21:00),"Tunai,Visa,Master,Debet,Go-pay,Ovo,Dana",no,no,no,no,no,yes,no,no,yes,no,no
308,162502272233529,Provence,[ Toko Roti ],False,-6.174832,106.789932," Neo Soho Mall, Lantai Lower Ground Jl. Letjen S. Parman, Slipi, Jakarta Barat ", Di bawah Rp. 50.000 /orang ,3.77,4.2,3.4,3.8,3.6,3.8,Senin - Minggu (10:00 - 22:00),"Tunai,Debet",no,no,no,no,no,yes,no,no,yes,no,no
309,1625022731770561,Seribu Rasa,[ Indonesia ],False,-6.18785,106.738747," St Moritz Mall (Lippo Mall Puri), Lantai 1 Jl. Puri Indah Boulevard Blok U1, Puri, Jakarta Barat ", Rp. 100.000 - Rp. 200.000 /orang ,3.85,4.1,4.1,3.2,4.0,4.0,Senin - Minggu (11:00 - 22:00),"Tunai,Visa,Master,Debet",yes,yes,no,no,no,yes,yes,yes,yes,yes,no
310,1625022738317674,Bakmi Bangka 21,[ China ],False,-6.161701,106.782978," Jl. Hadiah II No. 18, Jelambar, Jakarta Barat ", Di bawah Rp. 50.000 /orang ,3.8,4.4,3.4,4.2,3.7,3.4,Senin - Minggu (07:00 - 15:00),Tunai,no,no,yes,no,no,no,no,no,no,no,no
311,1625022743474543,Ayam Gedebuk,[ Indonesia ],True,-6.135048,106.720529," Ruko Taman Palem Lestari, Blok A5 No. 36A Jl. Taman Palem Lestari, Cengkareng, Jakarta Barat ", Di bawah Rp. 50.000 /orang ,3.82,4.0,3.6,4.1,3.7,3.8,Senin - Minggu (10:00 - 21:00),"Tunai,Debet",yes,no,yes,yes,no,yes,no,yes,yes,no,no
312,1625022750178162,Dum Dum Thai Drinks,[ Minuman ],False,-6.169511,106.773329," Jl. Green Ville Raya Blok BK No. 5, Green Ville, Jakarta Barat ", Di bawah Rp. 50.000 /orang ,3.97,4.3,3.8,4.0,3.9,4.0,Senin - Minggu (10:00 - 22:00),"Tunai,Debet",yes,no,no,no,no,yes,no,no,yes,no,no
313,1625022753431682,Lukumades,[ Donat ],False,-6.18785,106.738747," St Moritz Mall (Lippo Mall Puri), Lantai 2 Jl. Puri Indah Boulevard Blok U1, Puri, Jakarta Barat ", Rp. 50.000 - Rp. 100.000 /orang ,4.02,4.5,3.5,3.6,4.1,4.4,"Senin - Kamis (12:00 - 20:00), Jumat - Minggu (12:00 - 21:00)","Tunai,Debet",no,no,no,no,no,yes,no,no,yes,no,no
314,1625022756932031,Starbucks Coffee,[ Kafe ],False,-6.201855,106.781499," Binus University, Lantai Ground Jl. Kebon Jeruk Raya No. 27, Kebon Jeruk, Jakarta Barat ", Rp. 50.000 - Rp. 100.000 /orang ,4.16,4.2,4.4,3.8,4.2,4.2,"Senin - Jumat (07:00 - 20:00), Sabtu (09:00 - 18:00), Minggu Tutup","Tunai,Visa,Master,Debet",yes,no,no,no,no,yes,no,no,yes,no,no
315,1625022759573867,Bangi Cafe,[ Kafe ],False,-6.126875,106.713148," Ciffest, Citra Garden 6 Jl. Raya Citra Garden 6, Cengkareng, Jakarta Barat ", Rp. 50.000 - Rp. 100.000 /orang ,4.06,3.9,4.1,4.0,4.1,4.1,"Senin - Kamis (07:30 - 24:00), Jumat - Sabtu (07:30 - 01:00), Minggu (07:30 - 24:00)","Tunai,Visa,Master,Debet",yes,no,yes,yes,no,yes,yes,yes,yes,no,no
316,162502276444434,Honu,[ Hawaii ],False,-6.174737,106.789658," Neo Soho Mall, Lantai Upper Ground Jl. Letjen S. Parman, Slipi, Jakarta Barat ", Rp. 50.000 - Rp. 100.000 /orang ,3.97,4.3,4.3,3.4,3.7,4.1,Senin - Minggu (10:00 - 22:00),Tunai,yes,no,no,no,no,no,no,yes,yes,no,no
317,1625022767786552,"Coteca (Coffee, Tea, and Cocoa)",[ Kafe ],False,-6.204524,106.783111," Jl. Kebon Jeruk Raya No. 2, Kebon Jeruk, Jakarta Barat ", Di bawah Rp. 50.000 /orang ,3.88,3.9,4.2,3.6,3.9,3.9,Senin - Minggu (09:00 - 23:00),"Tunai,Visa,Master,Debet",yes,no,yes,no,no,yes,no,yes,yes,no,no
