,resto_id,name,cuisine_type,is_official,lat,long,location,average_price,overall_rating,rating_rasa,rating_suasana,rating_harga_rasa,rating_pelayanan,rating_kebersihan,open_time,payment_method,wifi,delivery,smoking_area,outdor_area,24hour,100%_halal,VIP_room,reservation,parking_area,alcohol,vegetarian
0,1642426479052719,Monsoon Cafe,[ Kafe ],True,-6.893479,107.584686," Bandung Trade Center, Lantai Ground Jl. Dr. Djunjunan 143 - 149, Pasteur, Bandung ( Alamat Lama: Jl. Sirnamanah No. 35, Sukajadi, Bandung ) ", Rp. 50.000 - Rp. 100.000 /orang ,4.16,4.4,4.3,3.9,4.2,4.1,Senin - Minggu (10:00 - 18:00),"Tunai,Visa,Master,Debet,Go-pay,Ovo",yes,no,yes,yes,no,yes,yes,yes,yes,no,no
1,1642426486593134,Q Boat,[ Korea ],False,-6.900533,107.599279," Jl. Pasteur No. 29 (Seberang Bio Farma), Pasteur, Bandung ", Rp. 50.000 - Rp. 100.000 /orang ,4.13,4.2,4.0,4.3,4.2,4.0,"Senin - Jumat (11:00 - 23:00), Sabtu - Minggu (10:00 - 23:00)","Tunai,Debet,Ovo",yes,no,yes,yes,no,yes,no,yes,yes,no,no
2,1642426489662678,Gion Japanese Grill & Chill,[ Jepang ],True,-6.890986,107.578594," WU Tower, Lantai 8 Jl. Dr. Djunjunan No. 588, Pasteur, Bandung ", Rp. 100.000 - Rp. 200.000 /orang ,4.47,4.3,4.7,4.3,4.3,4.7,"Senin (16:00 - 22:00), Selasa - Kamis (11:00 - 22:00), Jumat - Sabtu (11:00 - 24:00), Minggu (09:00 - 21:00)","Tunai,Visa,Master,Debet",yes,no,yes,yes,no,yes,yes,yes,yes,yes,no
3,1642426491803499,Restoran Simpang Raya,[ Indonesia ],False,-6.892727,107.585381," Jl. Dr. Djunjunan No. 182, Pasteur, Bandung ", Di bawah Rp. 50.000 /orang ,4.13,4.7,3.7,4.0,4.3,4.0,Senin - Minggu (09:00 - 22:00),"Tunai,Visa,Master,Debet",yes,yes,yes,yes,no,yes,yes,yes,yes,no,no
4,164242649398648,Bakso Enggal Malang,[ Indonesia ],False,-6.897065,107.59141," Jl. Dr. Djunjunan No. 61, Pasteur, Bandung ", Di bawah Rp. 50.000 /orang ,3.75,4.4,3.3,3.8,3.6,3.8,Senin - Minggu (09:00 - 22:00),"Tunai,Visa,Master,Debet",no,no,yes,no,no,yes,no,no,yes,no,no
5,1642426498476762,Sate Maranggi dan Sop Hj. Maya,[ Indonesia ],False,-6.894817357821503,107.58," Jl. Dr. Djunjunan No. 126 - 128, Pasteur, Bandung ", Di bawah Rp. 50.000 /orang ,3.85,4.5,3.5,3.8,3.8,3.8,Senin - Minggu (09:00 - 21:00),Tunai,no,no,yes,yes,no,yes,no,yes,yes,no,no
6,1642426501996568,Saung Kabayan,[ Indonesia ],False,-6.895913,107.589301," Jl. Dr. Djunjunan No. 107, Pasteur, Bandung ", Rp. 50.000 - Rp. 100.000 /orang ,3.72,4.2,3.6,3.8,3.8,3.2,Senin - Minggu (10:00 - 22:00),"Tunai,Visa,Master,Debet,Go-pay",yes,no,yes,yes,no,yes,yes,yes,yes,no,no
7,16424265067182,Baso Solo Condong Raos Istigfar,[ Indonesia ],False,-6.894171,107.584453," Jl. Sukawarna No. 10 (Belakang Mall BTC), Pasteur, Bandung ", Di bawah Rp. 50.000 /orang ,4.2,4.5,4.0,4.5,4.0,4.0,Senin - Minggu (09:00 - 21:00),Tunai,no,no,yes,no,no,yes,no,no,yes,no,no
8,1642426508020732,Dapur Unik,[ Kafe ],False,-6.894802,107.587793," Jl. Dr. Djunjunan No. 121, Pasteur, Bandung ", Rp. 50.000 - Rp. 100.000 /orang ,3.6,3.9,3.3,3.8,3.5,3.6,Senin - Minggu (08:30 - 22:00),"Tunai,Debet,Ovo,Dana",yes,no,yes,yes,no,yes,no,yes,yes,no,no
9,1642426512660946,Mayasari Bakery,[ Toko Roti dan Kue ],False,-6.892524,107.583326," Jl. Dr. Djunjunan No. 155, Pasteur, Bandung ", Di bawah Rp. 50.000 /orang ,3.75,4.3,3.3,3.3,4.0,4.0,Senin - Minggu (06:00 - 22:00),"Tunai,Visa,Master,Debet",no,no,no,no,no,yes,no,no,yes,no,no
10,164242651574691,Raja Sunda,[ Indonesia ],False,-6.897039,107.591213," Jl. Dr. Djunjunan No. 63, Pasteur, Bandung ", Di bawah Rp. 50.000 /orang ,3.65,3.8,3.5,3.5,3.8,3.8,Senin - Minggu (10:00 - 21:00),"Tunai,Visa,Master,Debet",yes,yes,yes,yes,no,yes,no,yes,yes,no,no
11,1642426519974333,HokBen (Hoka Hoka Bento),,False,-6.893331,107.5849826," Bandung Trade Center, Lantai 1, Food City Jl. Dr. Djunjunan No. 143 - 149, Pasteur, Bandung ", Rp. 50.000 - Rp. 100.000 /orang ,4.6,5.0,5.0,3.0,5.0,5.0,Senin - Minggu (10:00 - 21:00),"Tunai,Visa,Master,Debet,Go-pay,Ovo",no,no,yes,yes,no,yes,no,no,yes,no,no
12,1642426521189432,Garmelia Bakery,[ Toko Roti dan Kue ],False,-6.889672,107.566404," Apartemen Gateway Pasteur Jl. Gunung Batu No. 203, Gunung Batu, Bandung ", Di bawah Rp. 50.000 /orang ,3.8,4.0,3.5,4.0,3.5,4.0,Senin - Minggu (06:30 - 21:00),"Tunai,Visa,Master,Debet,Ovo",no,no,yes,yes,no,yes,no,no,yes,no,no
13,1642426522774191,Beerpoint,[ Lounge ],False,-6.900499,107.603018," Jl. Pasteur No. 11A, Cipaganti, Bandung ", Di bawah Rp. 50.000 /orang ,4.0,5.0,5.0,4.0,3.0,3.0,"Senin - Kamis (15:00 - 01:00), Jumat - Sabtu (15:00 - 02:00), Minggu (15:00 - 01:00)","Tunai,Visa,Master,Debet",yes,no,yes,yes,no,yes,no,yes,yes,yes,no
14,1642426524436043,Warung Nasi Ampera,[ Indonesia ],False,-6.895105,107.58807," Jl. Dr. Djunjunan No. 119, Pasteur, Bandung ", Di bawah Rp. 50.000 /orang ,4.0,4.0,5.0,4.0,4.0,3.0,Senin - Minggu (09:00 - 22:00),"Tunai,Visa,Master,Debet",yes,no,yes,yes,no,yes,no,yes,yes,no,no
15,1642426525911927,Restoran Sederhana,[ Indonesia ],False,-6.894998,107.58861," Jl. Dr. Djunjunan No. 120, Pasteur, Bandung ", Rp. 50.000 - Rp. 100.000 /orang ,3.6,4.5,3.5,3.0,3.5,3.5,Senin - Minggu (08:00 - 22:00),"Tunai,Visa,Master,Debet",yes,yes,yes,no,no,yes,no,yes,yes,no,no
16,16424265281186,Kedai Kopi Wak Jenggot,[ Minuman ],False,-6.893331,107.5849826," Bandung Trade Center, Lantai 1, Food City Jl. Dr. Djunjunan 143 - 149, Pasteur, Bandung ", Di bawah Rp. 50.000 /orang ,4.0,4.0,3.0,5.0,4.0,4.0,Senin - Minggu (10:00 - 21:00),"Tunai,Debet,Go-pay,Ovo",no,no,yes,yes,no,yes,no,no,yes,no,no
17,164242652930079,Clemmons,"[ Barat,Jepang ]",False,-6.893331,107.5849826," Bandung Trade Center, Lantai 1, Food City Jl. Dr. Djunjunan No. 143 - 149, Pasteur, Bandung ", Di bawah Rp. 50.000 /orang ,4.0,5.0,3.0,4.0,4.0,4.0,Senin - Minggu (10:00 - 21:00),"Tunai,Go-pay,Ovo",no,no,yes,yes,no,yes,no,no,yes,no,no
18,1642426530829296,Takiyo,[ Jepang ],False,-6.893335,107.584876," Bandung Trade Center, Lantai 1, Food City Jl. Dr. Djunjunan No. 143 - 149, Pasteur, Bandung ", Di bawah Rp. 50.000 /orang ,4.0,4.0,4.0,4.0,4.0,4.0,Senin - Minggu (10:00 - 21:00),"Tunai,Go-pay,Ovo",no,no,yes,yes,no,yes,no,no,yes,no,no
19,1642426532562692,Arem Arem Bu Broto,[ Toko Kue ],False,-6.892525,107.583171," Warung Cepot Jl. Dr. Djunjunan No. 155D, Pasteur, Bandung ", Di bawah Rp. 50.000 /orang ,4.0,4.0,4.0,4.0,4.0,4.0,Senin - Minggu (09:00 - 22:00),"Tunai,Visa,Master,Debet,Go-pay,Ovo",no,no,yes,no,no,yes,no,no,yes,no,no
20,164242653419958,Pak Chi Met,[ Indonesia ],False,-6.893335,107.584876," Bandung Trade Center, Lantai 1, Food City Jl. Dr. Djunjunan No. 143 - 149, Pasteur, Bandung ", Di bawah Rp. 50.000 /orang ,3.8,5.0,3.0,5.0,3.0,3.0,Senin - Minggu (10:00 - 21:00),Tunai,no,no,yes,yes,no,yes,no,no,yes,no,no
21,1642426535533225,Siomay Goreng Mayo,[ Indonesia ],False,-6.893335,107.584876," Bandung Trade Center, Lantai 1, Food City Jl. Dr. Djunjunan No. 143 - 149, Pasteur, Bandung ", Di bawah Rp. 50.000 /orang ,3.8,5.0,3.0,5.0,3.0,3.0,Senin - Minggu (10:00 - 21:00),Tunai,no,no,yes,yes,no,yes,no,no,yes,no,no
22,1642426537677181,D' Cost,[ Indonesia ],False,-6.893457,107.585003," Bandung Trade Center, Lantai Ground Jl. Dr. Djunjunan 143 - 149, Pasteur, Bandung ", Rp. 50.000 - Rp. 100.000 /orang ,4.0,4.0,4.0,3.0,5.0,4.0,Senin - Minggu (10:00 - 21:00),"Tunai,Visa,Master,Debet",yes,no,yes,yes,no,yes,no,no,yes,no,no
23,1642426539201487,Ayam Kalasan Mbak Elly,[ Indonesia ],False,-6.900128,107.603715," Jl. Pasteur No. 2, Cihampelas, Bandung ", Di bawah Rp. 50.000 /orang ,3.8,5.0,3.0,4.0,4.0,3.0,Senin - Minggu (10:00 - 19:00),Tunai,no,no,yes,no,no,yes,no,no,no,no,no
24,1642426540629131,Cafe Tulip,[ Kafe ],False,-6.898353,107.597955," RSUP Dr. Hasan Sadikin Bandung, Gedung Anggrek, Lantai 6 Jl. Pasteur No. 38, Sukajadi, Bandung ", Di bawah Rp. 50.000 /orang ,3.8,4.0,3.0,5.0,3.0,4.0,"Senin - Sabtu (08:00 - 18:00), Minggu Tutup",Tunai,no,no,no,no,no,yes,no,no,yes,no,no
25,1642426542367444,Chatime,[ Bubble Tea ],False,-6.892987,107.585223," Bandung Trade Center, Lantai Lower Ground Jl. Dr. Djunjunan No. 143 - 149, Pasteur, Bandung ", Di bawah Rp. 50.000 /orang ,3.3,4.5,3.0,3.5,2.5,3.0,Senin - Minggu (10:00 - 21:00),"Tunai,Visa,Master,Debet",yes,no,no,no,no,yes,no,no,yes,no,no
26,1642426544034006,Mie Baso Bogowonto,[ Indonesia ],False,-6.890212,107.572408," Rest Area Pasteur Jl. Tol Pasteur, Pasteur, Bandung ", Di bawah Rp. 50.000 /orang ,3.8,4.0,3.0,4.0,4.0,4.0,Senin - Minggu (07:00 - 22:00),Tunai,no,no,yes,no,no,yes,no,no,yes,no,no
27,1642426545529312,Bolen Lilit,[ Toko Kue ],False,-6.895383,107.588328," Griya Pasteur Jl. Dr. Djunjunan No. 115, Pasteur, Bandung ", Di bawah Rp. 50.000 /orang ,3.8,4.0,3.0,4.0,4.0,4.0,Senin - Minggu (09:00 - 21:00),"Tunai,Visa,Master,Debet",no,no,no,no,no,yes,no,no,yes,no,no
28,1642426547181047,Roti 'O,[ Toko Roti ],False,-6.893457,107.585003," Bandung Trade Center, Lantai Lower Ground Jl. Dr. Djunjunan No. 143 - 149, Pasteur, Bandung ", Di bawah Rp. 50.000 /orang ,3.8,4.0,3.0,4.0,4.0,4.0,Senin - Minggu (10:00 - 21:00),Tunai,no,no,no,no,no,yes,no,no,yes,no,no
29,16424265485181,Kopi Janji Jiwa,[ Minuman ],False,-6.893479,107.584686," Bandung Trade Center, Lantai Ground Jl. Dr. Djunjunan 143 - 149, Pasteur, Bandung ", Di bawah Rp. 50.000 /orang ,3.8,4.0,3.0,4.0,4.0,4.0,Senin - Minggu (07:30 - 18:30),Tunai,not sure,not sure,not sure,not sure,no,yes,not sure,not sure,yes,no,no
30,1642426550148959,ToriKu,[ Jepang ],False,-6.893335,107.584876," Bandung Trade Center, Lantai 1, Food City Jl. Dr. Djunjunan 143 - 149, Pasteur, Bandung ", Di bawah Rp. 50.000 /orang ,3.5,4.0,2.5,3.5,3.5,4.0,Senin - Minggu (10:00 - 21:00),"Tunai,Go-pay,Ovo",no,no,yes,yes,no,yes,no,no,yes,no,no
31,1642426552222684,Ayam Geprek Fat Chicken,[ Indonesia ],False,-6.893347,107.584917," Bandung Trade Center, Lantai 1, Food City Jl. Dr. Djunjunan No. 143 - 149, Pasteur, Bandung ", Di bawah Rp. 50.000 /orang ,3.6,5.0,2.0,4.0,5.0,2.0,Senin - Minggu (10:00 - 21:00),"Tunai,Visa,Master,Debet,Go-pay",no,no,yes,yes,no,yes,no,no,yes,no,no
32,1642426554831021,Duta Rasa Bakery,[ Toko Roti dan Kue ],False,-6.892538,107.583263," Jl. Dr. Djunjunan No. 155C, Pasteur, Bandung ", Di bawah Rp. 50.000 /orang ,3.6,4.0,3.0,4.0,4.0,3.0,Senin - Minggu (06:30 - 20:30),"Tunai,Debet,Go-pay,Ovo",no,no,no,no,no,yes,no,no,yes,no,no
33,1642426556669797,Kenzu,[ Minuman ],False,-6.893331,107.5849826," Bandung Trade Center, Lantai 1, Food City Jl. Dr. Djunjunan 143 - 149, Pasteur, Bandung ", Di bawah Rp. 50.000 /orang ,3.6,4.0,3.0,4.0,4.0,3.0,Senin - Minggu (10:00 - 21:00),Tunai,no,no,yes,yes,no,yes,no,no,yes,no,no
34,1642426558289142,Ibis Kitchen - Hotel Ibis Pasteur,"[ Indonesia,Barat ]",False,-6.899867,107.596089," Hotel Ibis Pasteur, Lantai Ground Jl. Dr. Djunjunan No. 22, Pasteur, Bandung ", Rp. 50.000 - Rp. 100.000 /orang ,3.4,3.5,3.5,2.5,3.5,4.0,Senin - Minggu (06:00 - 22:00),"Tunai,Visa,Master,Debet",yes,no,yes,yes,yes,yes,no,yes,yes,yes,no
35,1642426560843829,Tahu Brintiiik,[ Indonesia ],False,-6.893335,107.584876," Bandung Trade Center, Lantai 1, Food City Jl. Dr. Djunjunan 143 - 149, Pasteur, Bandung ", Di bawah Rp. 50.000 /orang ,3.3,4.0,3.0,3.5,3.0,3.0,Senin - Minggu (10:00 - 21:00),"Tunai,Go-pay",no,no,yes,yes,no,yes,no,no,yes,no,no
36,1642426562558311,The Magenta Coffee & Wine - Holiday Inn Bandung Pasteur,[ Kafe ],False,-6.896055,107.59082," Holiday Inn Bandung Pasteur, Lantai Lobby Jl. Dr. Djunjunan No. 96, Pasteur, Bandung ", Rp. 50.000 - Rp. 100.000 /orang ,3.4,3.5,3.5,2.5,3.0,4.5,Senin - Minggu (08:00 - 24:00),"Tunai,Visa,Master,Debet",yes,no,yes,no,no,yes,no,yes,yes,yes,no
37,164242656460482,Batagor Riri,[ Indonesia ],False,-6.893929,107.586707," Pasteur Square Jl. Dr. Djunjunan No. 135A, Pasteur, Bandung ", Di bawah Rp. 50.000 /orang ,3.6,4.0,4.0,1.0,4.0,5.0,Senin - Minggu (09:00 - 20:00),Tunai,no,no,yes,no,no,yes,no,no,yes,no,no
38,1642426566080946,The Ambassador Coffee Shop - Holiday Inn Bandung Pasteur,"[ Indonesia,Barat,Italia ]",False,-6.896055,107.59082," Holiday Inn Bandung Pasteur, Lantai Lobby Jl. Dr. Djunjunan No. 96, Pasteur, Bandung ", Di bawah Rp. 50.000 /orang ,3.6,3.0,4.0,3.0,4.0,4.0,Senin - Minggu (06:00 - 23:00),"Tunai,Visa,Master,Debet",yes,no,yes,yes,no,yes,no,yes,yes,yes,no
39,1642426568119878,Sulawesi@Pasteur,[ Indonesia ],False,-6.900607,107.603104," Jl. Pasteur No. 11A, Cipaganti, Bandung ", Di bawah Rp. 50.000 /orang ,3.4,4.0,3.0,3.0,3.0,4.0,Senin - Minggu (10:00 - 22:00),"Tunai,Visa,Master,Debet",yes,yes,yes,no,no,yes,no,yes,yes,yes,no
40,1642426569724071,KFC,,False,-6.892987,107.585223," Bandung Trade Center, Lantai Lower Ground Jl. Dr. Djunjunan No. 143 - 149, Pasteur, Bandung ", Di bawah Rp. 50.000 /orang ,3.2,4.0,4.0,2.0,3.0,3.0,Senin - Minggu (08:00 - 22:00),"Tunai,Visa,Master,Debet",yes,yes,yes,yes,no,yes,no,no,yes,no,no
41,1642426571274739,Naya Cerita Kopi,[ Kafe ],False,-6.895876627859669,107.58," Jl. Dr. Djunjunan No. 109, Pasteur, Bandung ", Di bawah Rp. 50.000 /orang ,3.4,3.0,3.0,4.0,4.0,3.0,"Selasa - Minggu (11:00 - 21:00), Senin Tutup",Tunai,not sure,not sure,not sure,not sure,no,not sure,not sure,not sure,not sure,no,no
42,1642426573034652,Martabak Legit Group,[ Indonesia ],False,-6.895757,107.589167," Jl. Dr. Djunjunan (Seberang Hotel Aquilla), Pasteur, Bandung ", Di bawah Rp. 50.000 /orang ,3.2,3.0,3.0,4.0,3.0,3.0,Senin - Minggu (18:00 - 23:00),Tunai,no,no,yes,no,no,yes,no,no,no,no,no
43,1642426574625501,Bakso Kota Cak Man,[ Indonesia ],False,-6.893331,107.5849826," Bandung Trade Center, Lantai 1, Food City Jl. Dr. Djunjunan No. 143 - 149, Pasteur, Bandung ", Di bawah Rp. 50.000 /orang ,3.2,3.0,3.0,3.0,3.0,4.0,Senin - Minggu (10:00 - 21:00),Tunai,no,no,yes,yes,no,yes,no,no,yes,no,no
44,1642426576153115,Cilok Griya,[ Indonesia ],False,-6.895113,107.5884," Jl. Dr. Djunjunan (Depan Griya Pasteur), Pasteur, Bandung ", Di bawah Rp. 50.000 /orang ,3.0,4.0,2.0,4.0,3.0,2.0,Senin - Minggu (11:00 - 20:00),Tunai,no,no,yes,no,no,yes,no,no,no,no,no
45,1642426577979559,Ice Tea Gopek,[ Minuman ],False,-6.893331,107.5849826," Bandung Trade Center, Lantai 1, Food City Jl. Dr. Djunjunan 143 - 149, Pasteur, Bandung ", Di bawah Rp. 50.000 /orang ,3.0,3.0,3.0,3.0,3.0,3.0,Senin - Minggu (10:00 - 21:00),Tunai,no,no,yes,yes,no,yes,no,no,yes,no,no
46,1642426579113484,Bandung Kunafe,[ Toko Kue ],False,-6.89266,107.583577," Jl. Dr. Djunjunan No. 153, Pasteur, Bandung ", Di bawah Rp. 50.000 /orang ,3.1,2.5,3.0,2.5,3.5,4.0,Senin - Minggu (07:00 - 22:00),"Tunai,Debet,Go-pay",no,no,no,no,no,yes,no,no,yes,no,no
47,1642426580831378,Justus Burger & Steak,[ Barat ],False,-6.893347,107.584917," Bandung Trade Center, Lantai 1, Food City Jl. Dr. Djunjunan 143 - 149, Pasteur, Bandung ", Rp. 50.000 - Rp. 100.000 /orang ,2.8,2.0,3.0,3.0,3.0,3.0,Senin - Minggu (10:00 - 21:00),"Tunai,Visa,Master,Debet,Go-pay",no,no,yes,yes,no,yes,no,no,yes,no,no
48,1642426582463974,Mikawa Japanese Restaurant,[ Jepang ],False,-6.892373,107.57467," Jl. Sukaraja II No. 2, Pasteur, Bandung ", Rp. 50.000 - Rp. 100.000 /orang ,2.6,3.0,2.0,2.0,2.0,4.0,"Senin - Sabtu (17:00 - 21:30), Minggu Tutup","Tunai,Visa,Master,Debet",no,no,yes,no,no,no,no,yes,yes,yes,no
49,1642426584082259,Batagor Abuy,[ Indonesia ],False,-6.892524,107.583326," Jl. Dr. Djunjunan No. 155 (Depan Mayasari), Pasteur, Bandung ", Di bawah Rp. 50.000 /orang ,2.6,2.0,2.0,2.0,4.0,3.0,Senin - Minggu (09:00 - 20:00),"Tunai,Visa,Master,Debet",no,no,yes,no,no,yes,no,no,yes,no,no
50,1642426586444814,Chatime,[ Bubble Tea ],False,-6.889494,107.566653," Apartemen Gateway Pasteur Jl. Gunung Batu No. 203, Gunung Batu, Bandung ", Di bawah Rp. 50.000 /orang ,2.3,2.5,2.0,2.0,2.5,2.5,Senin - Minggu (10:00 - 21:00),"Tunai,Visa,Master,Debet",no,no,yes,no,no,yes,no,no,yes,no,no
51,1642426588786765,Griya Dahar Ibu Kadi,[ Indonesia ],False,-6.892755,107.585737," Jl. Dr. Djunjunan No. 178, Pasteur, Bandung ", Rp. 50.000 - Rp. 100.000 /orang ,2.0,2.0,2.0,2.0,2.0,2.0,Senin - Minggu (10:00 - 21:00),Tunai,yes,no,yes,no,no,yes,no,yes,yes,yes,no
52,1642426590693876,Aneka Minuman Sukamulya,[ Minuman ],False,-6.889049,107.588044," Foodcourt Sukamulya Jl. Terusan Sukamulya No. 70, Pasteur, Bandung ", Di bawah Rp. 50.000 /orang ,0.0,0.0,0.0,0.0,0.0,0.0,Senin - Minggu (10:30 - 22:00),"Tunai,Go-pay,Ovo",yes,yes,yes,no,no,yes,no,yes,yes,no,no
53,1642426591355526,Es Campur SM,[ Dessert ],False,-6.889049,107.588044," Foodcourt Sukamulya Jl. Terusan Sukamulya No. 70, Pasteur, Bandung ", Di bawah Rp. 50.000 /orang ,0.0,0.0,0.0,0.0,0.0,0.0,Senin - Minggu (10:30 - 22:00),"Tunai,Go-pay,Ovo",yes,yes,yes,no,no,yes,no,yes,yes,no,no
54,1642426592027789,Ikan Bakar Simanalagi,[ Indonesia ],False,-6.889049,107.588044," Foodcourt Sukamulya Jl. Terusan Sukamulya No. 70, Pasteur, Bandung ", Di bawah Rp. 50.000 /orang ,0.0,0.0,0.0,0.0,0.0,0.0,Senin - Minggu (10:30 - 22:00),"Tunai,Go-pay,Ovo",yes,yes,yes,no,no,yes,no,yes,yes,no,no
55,1642426592694325,Bubur Ayam Spesial Pak Anjo,[ Indonesia ],False,-6.895347,107.588703," Jl. Dr. Djunjunan (Depan Yamaha Berlian Pasteur), Pasteur, Bandung ", Di bawah Rp. 50.000 /orang ,0.0,0.0,0.0,0.0,0.0,0.0,Senin - Minggu (11:00 - 20:00),Tunai,no,no,yes,no,no,yes,no,no,no,no,no
56,1642426593345691,Cireng Persib,[ Indonesia ],False,-6.895347,107.588703," Jl. Dr. Djunjunan (Depan Yamaha Berlian Pasteur), Pasteur, Bandung ", Di bawah Rp. 50.000 /orang ,0.0,0.0,0.0,0.0,0.0,0.0,Senin - Minggu (11:00 - 20:00),Tunai,no,no,yes,no,no,yes,no,no,no,no,no
57,1642426594275604,Martabak San Francisco,[ Indonesia ],False,-6.893929,107.586707," Pasteur Square Jl. Dr. Djunjunan No. 135A, Pasteur, Bandung ", Di bawah Rp. 50.000 /orang ,0.0,0.0,0.0,0.0,0.0,0.0,Senin - Minggu (13:00 - 23:00),"Tunai,Go-pay,Ovo",no,no,yes,no,no,yes,no,no,yes,no,no
58,1642426594908847,Lumpiah Basah Indah Rasa,[ Indonesia ],False,-6.895347,107.588703," Jl. Dr. Djunjunan (Depan Yamaha Berlian Pasteur), Pasteur, Bandung ", Di bawah Rp. 50.000 /orang ,0.0,0.0,0.0,0.0,0.0,0.0,Senin - Minggu (11:00 - 20:00),Tunai,no,no,yes,no,no,yes,no,no,no,no,no
59,1642426595551797,Tutut Hidayah,[ Indonesia ],False,-6.895113,107.5884," Jl. Dr. Djunjunan (Depan Griya Pasteur), Pasteur, Bandung ", Di bawah Rp. 50.000 /orang ,0.0,0.0,0.0,0.0,0.0,0.0,Senin - Minggu (11:00 - 20:00),Tunai,no,no,yes,no,no,yes,no,no,no,no,no
60,1642426596145511,Ayam Bersih Berkah,[ Indonesia ],False,-6.893867,107.573804," Jl. Sukaraja II No. 280, Pasteur, Bandung ", Di bawah Rp. 50.000 /orang ,0.0,0.0,0.0,0.0,0.0,0.0,Senin - Minggu (08:00 - 22:00),Tunai,no,no,yes,no,no,yes,no,no,no,no,no
61,1642426596802427,Alin Cakue,[ Indonesia ],False,-6.895113,107.5884," Jl. Dr. Djunjunan (Depan Griya Pasteur), Pasteur, Bandung ", Di bawah Rp. 50.000 /orang ,0.0,0.0,0.0,0.0,0.0,0.0,Senin - Minggu (11:00 - 20:00),Tunai,no,no,yes,no,no,yes,no,no,no,no,no
62,1642426597436458,Umaro Coffee & Vape,[ Kafe ],False,-6.892599,107.574904," Jl. Sukaraja No. 318, Pasteur, Bandung ", Di bawah Rp. 50.000 /orang ,0.0,0.0,0.0,0.0,0.0,0.0,"Senin - Jumat (10:00 - 22:00), Sabtu (10:00 - 23:00), Minggu Tutup","Tunai,Visa,Master,Debet,Go-pay",yes,no,yes,yes,no,yes,no,yes,yes,no,no
63,1642426598231202,Awug Beras Jawara Bandung,[ Indonesia ],False,-6.895113,107.5884," Jl. Dr. Djunjunan (Depan Griya Pasteur), Pasteur, Bandung ", Di bawah Rp. 50.000 /orang ,0.0,0.0,0.0,0.0,0.0,0.0,Senin - Minggu (11:00 - 20:00),Tunai,no,no,yes,no,no,yes,no,no,no,no,no
64,1642426598886761,RM Padang Sultan Recipes,[ Indonesia ],False,-6.89134,107.575484," Ruko Istana Pasteur Regency, Blok CRB No. 92 Jl. Sukaraja, Gunung Batu, Bandung ", Di bawah Rp. 50.000 /orang ,0.0,0.0,0.0,0.0,0.0,0.0,Senin - Minggu (10:00 - 22:00),Tunai,no,no,yes,no,no,yes,no,no,yes,no,no
65,1642426599587572,Baso Tahu Tulen Gardujati,[ Indonesia ],False,-6.895113,107.5884," Jl. Dr. Djunjunan (Depan Griya Pasteur), Pasteur, Bandung ", Di bawah Rp. 50.000 /orang ,0.0,0.0,0.0,0.0,0.0,0.0,Senin - Minggu (11:00 - 20:00),Tunai,no,no,yes,no,no,yes,no,no,no,no,no
66,1642426600438804,Pepes Ikan Mas Mang Ujun,[ Indonesia ],False,-6.895113,107.5884," Jl. Dr. Djunjunan (Depan Griya Pasteur), Pasteur, Bandung ", Di bawah Rp. 50.000 /orang ,0.0,0.0,0.0,0.0,0.0,0.0,Senin - Minggu (11:00 - 20:00),Tunai,no,no,yes,no,no,yes,no,no,no,no,no
67,1642426601092024,Atik Fruity Juice,[ Minuman ],False,-6.894171,107.584453," Jl. Sukawarna No. 10 (Belakang Mall BTC), Pasteur, Bandung ", Di bawah Rp. 50.000 /orang ,0.0,0.0,0.0,0.0,0.0,0.0,Senin - Minggu (09:00 - 19:00),Tunai,no,no,yes,no,no,yes,no,no,yes,no,no
68,1642426601804204,Seafood Pasteur 76,[ Indonesia ],False,-6.897067,107.59219," Jl. Dr. Djunjunan No. 76A, Pasteur, Bandung ", Di bawah Rp. 50.000 /orang ,0.0,0.0,0.0,0.0,0.0,0.0,Senin - Minggu (13:00 - 22:00),"Tunai,Visa,Master,Debet,Ovo",yes,yes,yes,no,no,yes,no,yes,no,no,no
69,1642426602611675,Rumah Sosis,[ Indonesia ],False,-6.893929,107.586707," Pasteur Square Jl. Dr. Djunjunan No. 135A, Pasteur, Bandung ", Di bawah Rp. 50.000 /orang ,0.0,0.0,0.0,0.0,0.0,0.0,Senin - Minggu (09:00 - 20:00),Tunai,no,no,yes,no,no,yes,no,no,yes,no,no
70,1642426603329803,Kedai Om Deny,[ Indonesia ],False,-6.894171,107.584453," Jl. Sukawarna No. 10 (Belakang Mall BTC), Pasteur, Bandung ", Di bawah Rp. 50.000 /orang ,0.0,0.0,0.0,0.0,0.0,0.0,Senin - Minggu (09:00 - 20:00),Tunai,no,no,yes,no,no,yes,no,no,yes,no,no
71,1642426604029066,Tahu Susu Lembang,[ Indonesia ],False,-6.893929,107.586707," Pasteur Square Jl. Dr. Djunjunan No. 135A, Pasteur, Bandung ", Di bawah Rp. 50.000 /orang ,0.0,0.0,0.0,0.0,0.0,0.0,Senin - Minggu (09:00 - 20:00),Tunai,no,no,yes,no,no,yes,no,no,yes,no,no
72,1642426604625402,Krenchise Hot Spicy Chicken,,False,-6.89413,107.584665," Jl. Sukawarna (Belakang Mall BTC), Pasteur, Bandung ", Di bawah Rp. 50.000 /orang ,0.0,0.0,0.0,0.0,0.0,0.0,Senin - Minggu (09:00 - 21:00),Tunai,no,no,yes,no,no,yes,no,no,no,no,no
73,1642426605357929,Mr. Bolgul,[ Toko Roti dan Kue ],False,-6.893929,107.586707," Pasteur Square Jl. Dr. Djunjunan No. 135A, Pasteur, Bandung ", Di bawah Rp. 50.000 /orang ,0.0,0.0,0.0,0.0,0.0,0.0,Senin - Minggu (09:00 - 21:00),Tunai,no,no,yes,no,no,yes,no,no,yes,no,no
74,1642426606131937,Ayam Penyet Ibu Lia,[ Indonesia ],False,-6.894257,107.585168," Jl. Sukawarna No. 21, Pasteur, Bandung ", Di bawah Rp. 50.000 /orang ,0.0,0.0,0.0,0.0,0.0,0.0,Senin - Minggu (09:00 - 21:00),Tunai,no,no,yes,no,no,yes,no,no,no,no,no
75,1642426606769132,Kapau Jaya,[ Indonesia ],False,-6.894257,107.585168," Jl. Sukawarna No. 21, Pasteur, Bandung ", Di bawah Rp. 50.000 /orang ,0.0,0.0,0.0,0.0,0.0,0.0,Senin - Minggu (09:00 - 22:00),Tunai,no,no,yes,no,no,yes,no,no,no,no,no
76,1642426607505112,Saung Beurang,[ Indonesia ],False,-6.894171,107.584453," Jl. Sukawarna No. 10 (Belakang Mall BTC), Pasteur, Bandung ", Di bawah Rp. 50.000 /orang ,0.0,0.0,0.0,0.0,0.0,0.0,Senin - Minggu (09:00 - 21:00),Tunai,no,no,yes,no,no,yes,no,no,yes,no,no
77,164242660820451,Baso Tahu Kriwil,[ Indonesia ],False,-6.894257,107.585168," Jl. Sukawarna No. 21, Pasteur, Bandung ", Di bawah Rp. 50.000 /orang ,0.0,0.0,0.0,0.0,0.0,0.0,Senin - Minggu (09:00 - 22:00),Tunai,no,no,yes,no,no,yes,no,no,no,no,no
78,1642426608940436,Seblak Gempa Bumi Mang Roni,[ Indonesia ],False,-6.895479,107.587904," Jl. Dr. Djunjunan Dalam (Samping Griya Pasteur), Pasteur, Bandung ", Di bawah Rp. 50.000 /orang ,0.0,0.0,0.0,0.0,0.0,0.0,Senin - Minggu (09:00 - 20:00),Tunai,no,no,yes,no,no,yes,no,no,no,no,no
79,1642426609564368,Masakan Padang Mega Mulya,[ Indonesia ],False,-6.894171,107.584453," Jl. Sukawarna No. 10 (Belakang Mall BTC), Pasteur, Bandung ", Di bawah Rp. 50.000 /orang ,0.0,0.0,0.0,0.0,0.0,0.0,Senin - Minggu (10:00 - 21:00),Tunai,no,no,yes,no,no,yes,no,no,yes,no,no
80,1642426610328449,Odise Drink,[ Yoghurt ],False,-6.893929,107.586707," Pasteur Square Jl. Dr. Djunjunan No. 135A, Pasteur, Bandung ", Di bawah Rp. 50.000 /orang ,0.0,0.0,0.0,0.0,0.0,0.0,Senin - Minggu (08:00 - 20:00),Tunai,no,no,yes,no,no,yes,no,no,yes,no,no
81,1642426610980953,Pelangi Jus,[ Minuman ],False,-6.894171,107.584453," Jl. Sukawarna No. 10 (Belakang Mall BTC), Pasteur, Bandung ", Di bawah Rp. 50.000 /orang ,0.0,0.0,0.0,0.0,0.0,0.0,Senin - Minggu (09:00 - 20:00),Tunai,no,no,yes,no,no,yes,no,no,yes,no,no
82,1642426611599077,Baso Tahu Tulen,[ Indonesia ],False,-6.893929,107.586707," Pasteur Square Jl. Dr. Djunjunan No. 135A, Pasteur, Bandung ", Di bawah Rp. 50.000 /orang ,0.0,0.0,0.0,0.0,0.0,0.0,Senin - Minggu (09:00 - 21:00),Tunai,no,no,yes,no,no,yes,no,no,yes,no,no
83,1642426612550569,Mie Bakso Laman,[ Indonesia ],False,-6.894257,107.585168," Jl. Sukawarna No. 21, Pasteur, Bandung ", Di bawah Rp. 50.000 /orang ,0.0,0.0,0.0,0.0,0.0,0.0,Senin - Minggu (08:00 - 21:00),Tunai,no,no,yes,no,no,yes,no,no,no,no,no
84,1642426613158681,Kedai 89,[ Indonesia ],False,-6.890974,107.5757," Ruko Istana Pasteur Regency, Blok CRB No. 89 Jl. Sukaraja No. 89, Gunung Batu, Bandung ", Di bawah Rp. 50.000 /orang ,0.0,0.0,0.0,0.0,0.0,0.0,Senin - Minggu (10:00 - 20:00),Tunai,no,yes,no,yes,no,not sure,no,no,yes,not sure,not sure
85,1642426613756822,Ayam Goreng Putri,[ Indonesia ],False,-6.896031,107.587768," Jl. Dr. Djunjunan Dalam (Depan SMP Yaqin), Pasteur, Bandung ", Di bawah Rp. 50.000 /orang ,0.0,0.0,0.0,0.0,0.0,0.0,Senin - Minggu (11:00 - 22:00),Tunai,no,no,yes,no,no,yes,no,no,no,no,no
86,1642426614349161,Cilok Om Cil,[ Indonesia ],False,-6.895318,107.588453," Jl. Dr. Djunjunan (Depan Griya Pasteur), Pasteur, Bandung ", Di bawah Rp. 50.000 /orang ,0.0,0.0,0.0,0.0,0.0,0.0,Senin - Minggu (09:00 - 20:00),Tunai,no,no,yes,no,no,yes,no,no,no,no,no
87,1642426615017762,Warung Selera Ibu Parni,[ Indonesia ],False,-6.896423,107.590468," Jl. Dr. Djunjunan (Seberang Holiday Inn), Pasteur, Bandung ", Di bawah Rp. 50.000 /orang ,0.0,0.0,0.0,0.0,0.0,0.0,Senin - Minggu (08:00 - 17:00),Tunai,no,no,yes,no,no,yes,no,no,no,no,no
88,164242661560234,Sky Resto,[ Indonesia ],False,-6.890374,107.572366," Ruko Istana Pasteur Regency, Blok CRA No. 16 Jl. Terusan Gunung Batu, Gunung Batu, Bandung ", Rp. 50.000 - Rp. 100.000 /orang ,0.0,0.0,0.0,0.0,0.0,0.0,"Senin - Sabtu (09:00 - 20:00), Minggu Tutup","Tunai,Ovo",yes,no,yes,no,no,yes,no,yes,yes,no,no
89,1642426616206265,Gado Gado Kliwon,[ Indonesia ],False,-6.895471,107.587991," Food Court Griya Pasteur Jl. Dr. Djunjunan No. 115, Pasteur, Bandung ", Di bawah Rp. 50.000 /orang ,0.0,0.0,0.0,0.0,0.0,0.0,Senin - Minggu (10:00 - 20:00),Tunai,no,no,yes,no,no,yes,no,no,yes,no,no
90,1642426616879524,Mini Soto,[ Indonesia ],False,-6.895471,107.587991," Food Court Griya Pasteur Jl. Dr. Djunjunan No. 115, Pasteur, Bandung ", Di bawah Rp. 50.000 /orang ,0.0,0.0,0.0,0.0,0.0,0.0,Senin - Minggu (10:00 - 20:00),Tunai,no,no,yes,no,no,yes,no,no,yes,no,no
91,1642426617496606,Waroeng Jadoel,[ Indonesia ],False,-6.893331,107.5849826," Bandung Trade Center, Lantai 1 Jl. Dr. Djunjunan No. 143 - 149, Pasteur, Bandung ", Di bawah Rp. 50.000 /orang ,0.0,0.0,0.0,0.0,0.0,0.0,Senin - Minggu (10:00 - 21:00),"Tunai,Debet,Ovo",no,no,no,no,no,yes,no,no,yes,no,no
92,1642426618124193,Ice Cone,[ Es Krim ],False,-6.893331,107.5849826," Bandung Trade Center, Lantai 1 Jl. Dr. Djunjunan 143 - 149, Pasteur, Bandung ", Di bawah Rp. 50.000 /orang ,0.0,0.0,0.0,0.0,0.0,0.0,Senin - Minggu (10:00 - 21:00),Tunai,no,no,no,no,no,yes,no,no,yes,no,no
93,1642426618766202,Mie Baso Bejo,[ Indonesia ],False,-6.897189,107.592258," Jl. Dr. Djunjunan (Sebelah BJB), Pasteur, Bandung ", Di bawah Rp. 50.000 /orang ,0.0,0.0,0.0,0.0,0.0,0.0,Senin - Minggu (09:00 - 20:00),Tunai,no,no,yes,no,no,yes,no,no,no,no,no
94,1642426619395151,Es Oyen,[ Dessert ],False,-6.895471,107.587991," Food Court Griya Pasteur Jl. Dr. Djunjunan No. 115, Pasteur, Bandung ", Di bawah Rp. 50.000 /orang ,0.0,0.0,0.0,0.0,0.0,0.0,Senin - Minggu (10:00 - 20:00),Tunai,no,no,yes,no,no,yes,no,no,yes,no,no
95,1642426620204112,Bread.Co,[ Toko Roti dan Kue ],False,-6.895383,107.588328," Griya Pasteur Jl. Dr. Djunjunan No. 115, Pasteur, Bandung ", Di bawah Rp. 50.000 /orang ,0.0,0.0,0.0,0.0,0.0,0.0,Senin - Minggu (09:00 - 21:00),"Tunai,Visa,Master,Debet",no,no,no,no,no,yes,no,no,yes,no,no
96,1642426620899913,Sate Kambing Muda Ibu Hj. Muthmainah,[ Indonesia ],False,-6.892229,107.582329," Jl. Dr. Djunjunan No. 150, Pasteur, Bandung ", Di bawah Rp. 50.000 /orang ,0.0,0.0,0.0,0.0,0.0,0.0,Senin - Minggu (10:00 - 22:00),Tunai,no,no,yes,no,no,yes,no,no,yes,no,no
97,1642426621509321,Ny. Tan Aneka Kue Basah,[ Toko Kue ],False,-6.895383,107.588328," Griya Pasteur Jl. Dr. Djunjunan No. 115, Pasteur, Bandung ", Di bawah Rp. 50.000 /orang ,0.0,0.0,0.0,0.0,0.0,0.0,Senin - Minggu (09:00 - 21:00),Tunai,no,no,no,no,no,yes,no,no,yes,no,no
98,1642426622641284,Seafood 57,[ Indonesia ],False,-6.892548,107.58108," Jl. Dr. Djunjunan (Samping Lampu Merah Pasteur), Pasteur, Bandung ", Di bawah Rp. 50.000 /orang ,0.0,0.0,0.0,0.0,0.0,0.0,24 Jam,Tunai,no,no,yes,no,yes,yes,no,no,yes,no,no
99,1642426623352741,Bolu Pisang Madu,[ Toko Kue ],False,-6.892527,107.583194," Jl. Dr. Djunjunan No. 155C, Pasteur, Bandung ", Di bawah Rp. 50.000 /orang ,0.0,0.0,0.0,0.0,0.0,0.0,Senin - Minggu (06:30 - 20:30),"Tunai,Debet",no,no,yes,no,no,yes,no,no,yes,no,no
100,1642426624018644,Kopi Seru,[ Minuman ],False,-6.893156,107.585121," Bandung Trade Center, Lantai Semi Basement Jl. Dr. Djunjunan No. 143 - 149, Pasteur, Bandung ", Di bawah Rp. 50.000 /orang ,0.0,0.0,0.0,0.0,0.0,0.0,Senin - Minggu (10:00 - 22:00),Tunai,no,no,no,no,no,yes,no,no,yes,no,no
101,1642426624704406,HokBen (Hoka Hoka Bento) Express,,False,-6.891127,107.571949," Borma Dakota Jl. Dakota No. 109, Pasteur, Bandung ", Rp. 50.000 - Rp. 100.000 /orang ,0.0,0.0,0.0,0.0,0.0,0.0,Senin - Minggu (09:00 - 21:00),Tunai,no,no,no,no,no,yes,no,no,yes,no,no
102,1642426625368047,Soto Semarang,[ Indonesia ],False,-6.891106,107.571862," Borma Dakota Jl. Dakota No. 109, Pasteur, Bandung ", Di bawah Rp. 50.000 /orang ,0.0,0.0,0.0,0.0,0.0,0.0,not listed,Tunai,not sure,not sure,not sure,not sure,not sure,yes,no,not sure,yes,no,no
103,1642426625973094,Bebek Goreng Bu Joko Khas Solo,[ Indonesia ],False,-6.891106,107.571862," Borma Dakota Jl. Dakota No. 109, Pasteur, Bandung ", Di bawah Rp. 50.000 /orang ,0.0,0.0,0.0,0.0,0.0,0.0,Senin - Minggu (09:00 - 20:00),Tunai,not sure,not sure,not sure,not sure,no,yes,not sure,not sure,yes,no,no
104,164242662654843,Lumpiah Basah Priangan,[ Indonesia ],False,-6.890941,107.572148," Jl. Dakota No. 109 (Depan Borma Dakota), Pasteur, Bandung ", Di bawah Rp. 50.000 /orang ,0.0,0.0,0.0,0.0,0.0,0.0,Senin - Minggu (10:00 - 19:00),Tunai,no,no,yes,no,no,yes,no,no,no,no,no
105,1642426627179173,Kebab Turkie,[ Arab/Timur Tengah ],False,-6.890899,107.572145," Jl. Dakota No. 109 (Depan Borma Dakota), Pasteur, Bandung ", Di bawah Rp. 50.000 /orang ,0.0,0.0,0.0,0.0,0.0,0.0,Senin - Minggu (09:00 - 21:00),Tunai,no,no,yes,no,no,yes,no,no,yes,no,no
106,1642426627797762,Seafood Ajum,[ Indonesia ],False,-6.891106,107.571862," Borma Dakota Jl. Dakota No. 109, Pasteur, Bandung ", Di bawah Rp. 50.000 /orang ,0.0,0.0,0.0,0.0,0.0,0.0,not listed,Tunai,not sure,not sure,not sure,not sure,not sure,yes,no,not sure,yes,no,no
107,1642426628376974,Batagor Sari Ikan,[ Indonesia ],False,-6.890941,107.572148," Jl. Dakota No. 109 (Depan Borma Dakota), Pasteur, Bandung ", Di bawah Rp. 50.000 /orang ,0.0,0.0,0.0,0.0,0.0,0.0,Senin - Minggu (09:00 - 19:00),Tunai,no,no,yes,no,no,yes,no,no,no,no,no
108,1642426629257795,Kabobs,[ Arab/Timur Tengah ],False,-6.893135,107.585127," Bandung Trade Center, Lantai Lower Ground Jl. Dr. Djunjunan No. 143 - 149, Pasteur, Bandung ", Di bawah Rp. 50.000 /orang ,0.0,0.0,0.0,0.0,0.0,0.0,Senin - Minggu (10:00 - 22:00),"Tunai,Visa,Master,Debet",no,no,no,no,no,yes,no,no,yes,no,no
109,1642426629933498,Teh Cap Poci,[ Minuman ],False,-6.893331,107.5849826," Bandung Trade Center, Lantai Semi Basement Jl. Dr. Djunjunan No. 143 - 149, Pasteur, Bandung ", Di bawah Rp. 50.000 /orang ,0.0,0.0,0.0,0.0,0.0,0.0,Senin - Minggu (10:00 - 21:00),Tunai,no,no,yes,yes,no,yes,no,no,yes,no,no
110,1642426630565676,Batagor H. Isan,[ Indonesia ],False,-6.897629,107.592382," Jl. Dr. Djunjunan No. 45, Pasteur, Bandung ", Di bawah Rp. 50.000 /orang ,0.0,0.0,0.0,0.0,0.0,0.0,Senin - Minggu (09:00 - 21:00),"Tunai,Debet",no,no,yes,no,no,yes,no,no,yes,no,no
111,1642426631142095,Laz Kitchen,[ Indonesia ],False,-6.891106,107.571862," Borma Dakota Jl. Dakota No. 109, Pasteur, Bandung ", Di bawah Rp. 50.000 /orang ,0.0,0.0,0.0,0.0,0.0,0.0,not listed,Tunai,not sure,not sure,not sure,not sure,not sure,yes,no,not sure,yes,no,no
112,1642426631796915,Nasi Bakar Cimandiri 18,[ Indonesia ],False,-6.893331,107.5849826," Bandung Trade Center, Lantai 1, Food City Jl. Dr. Djunjunan No. 143 - 149, Pasteur, Bandung ", Di bawah Rp. 50.000 /orang ,0.0,0.0,0.0,0.0,0.0,0.0,Senin - Minggu (10:00 - 21:00),"Tunai,Visa,Master,Debet",no,no,yes,yes,no,yes,no,no,yes,no,no
113,1642426632509827,Ceu Nihin,[ Minuman ],False,-6.891106,107.571862," Borma Dakota Jl. Dakota No. 109, Pasteur, Bandung ", Di bawah Rp. 50.000 /orang ,0.0,0.0,0.0,0.0,0.0,0.0,not listed,Tunai,not sure,not sure,not sure,not sure,not sure,yes,no,not sure,yes,no,no
114,1642426633160113,Aice,[ Es Krim ],False,-6.889049,107.588044," Foodcourt Sukamulya Jl. Terusan Sukamulya No. 70, Pasteur, Bandung ", Di bawah Rp. 50.000 /orang ,0.0,0.0,0.0,0.0,0.0,0.0,Senin - Minggu (10:30 - 22:00),"Tunai,Go-pay,Ovo",yes,yes,yes,no,no,yes,no,yes,yes,no,no
115,1642426633764363,Ropang & Pisbak SM,[ Indonesia ],False,-6.889049,107.588044," Foodcourt Sukamulya Jl. Terusan Sukamulya No. 70, Pasteur, Bandung ", Di bawah Rp. 50.000 /orang ,0.0,0.0,0.0,0.0,0.0,0.0,Senin - Minggu (10:30 - 22:00),"Tunai,Go-pay,Ovo",yes,yes,yes,no,no,yes,no,yes,yes,no,no
116,1642426634372951,Baso Tulang Iga Sava,[ Indonesia ],False,-6.891106,107.571862," Borma Dakota Jl. Dakota No. 109, Pasteur, Bandung ", Di bawah Rp. 50.000 /orang ,0.0,0.0,0.0,0.0,0.0,0.0,not listed,Tunai,not sure,not sure,not sure,not sure,not sure,yes,not sure,not sure,yes,no,no
117,1642426634968144,Aneka Indomie SM,[ Indonesia ],False,-6.889049,107.588044," Foodcourt Sukamulya Jl. Terusan Sukamulya No. 70, Pasteur, Bandung ", Di bawah Rp. 50.000 /orang ,0.0,0.0,0.0,0.0,0.0,0.0,Senin - Minggu (10:30 - 22:00),"Tunai,Go-pay,Ovo",yes,yes,yes,no,no,yes,no,yes,yes,no,no
118,164242663568819,Nasi Bebek Pak Den,[ Indonesia ],False,-6.889049,107.588044," Foodcourt Sukamulya Jl. Terusan Sukamulya No. 70, Pasteur, Bandung ", Di bawah Rp. 50.000 /orang ,0.0,0.0,0.0,0.0,0.0,0.0,Senin - Minggu (10:30 - 22:00),"Tunai,Go-pay,Ovo",yes,yes,yes,no,no,yes,no,yes,yes,no,no
119,1642426636406553,Es Pisang Ijo Anti Galau,[ Dessert ],False,-6.890673,107.572264," Jl. Dakota No. 109 (Seberang Borma Dakota), Pasteur, Bandung ", Di bawah Rp. 50.000 /orang ,0.0,0.0,0.0,0.0,0.0,0.0,Senin - Minggu (10:00 - 18:00),Tunai,no,no,yes,no,no,yes,no,no,no,no,no
120,16424266370943,Mie Ayam Ceker Maranti,[ Indonesia ],False,-6.890673,107.572264," Jl. Dakota No. 109 (Seberang Borma Dakota), Pasteur, Bandung ", Di bawah Rp. 50.000 /orang ,0.0,0.0,0.0,0.0,0.0,0.0,Senin - Minggu (09:00 - 19:00),Tunai,no,no,yes,no,no,yes,no,no,no,no,no
121,1642426637837569,Guriru Shabu & Grill,[ Jepang ],False,-6.891841,107.580894," Jl. Terusan Dr. Djunjunan No. 1, Pasteur, Bandung ", Rp. 50.000 - Rp. 100.000 /orang ,0.0,0.0,0.0,0.0,0.0,0.0,Senin - Minggu (11:00 - 20:00),"Tunai,Visa,Master,Debet,Go-pay,Ovo,Dana",yes,no,yes,no,no,yes,no,no,yes,no,no
122,1642426638465744,Cham Khaw - Holiday Inn Bandung Pasteur,[ Thailand ],False,-6.896055,107.59082," Holiday Inn Bandung Pasteur, Lantai Lobby Jl. Dr. Djunjunan No. 96, Pasteur, Bandung ", Rp. 100.000 - Rp. 200.000 /orang ,0.0,0.0,0.0,0.0,0.0,0.0,Senin - Minggu (18:00 - 22:00),"Tunai,Visa,Master,Debet",yes,no,yes,yes,no,yes,no,yes,yes,yes,no
123,1642426639053976,Es Oyen,[ Dessert ],False,-6.891127,107.571949," Food Court Borma Dakota Jl. Dakota No. 109, Pasteur, Bandung ", Di bawah Rp. 50.000 /orang ,0.0,0.0,0.0,0.0,0.0,0.0,Senin - Minggu (09:00 - 21:00),Tunai,no,no,yes,no,no,yes,no,no,yes,no,no
124,1642426639688325,3 Cups Coffee,[ Minuman ],False,-6.893331,107.5849826," Bandung Trade Center, Lantai Semi Basement Jl. Dr. Djunjunan No. 143 - 149, Pasteur, Bandung ", Di bawah Rp. 50.000 /orang ,0.0,0.0,0.0,0.0,0.0,0.0,Senin - Minggu (10:00 - 21:00),Tunai,no,no,no,no,no,yes,no,no,yes,no,no
125,1642426640324089,Bolu Susu Lembang,[ Toko Kue ],False,-6.893807,107.58652," Pasteur Square Jl. Dr. Djunjunan No. 135A, Pasteur, Bandung ", Di bawah Rp. 50.000 /orang ,0.0,0.0,0.0,0.0,0.0,0.0,not listed,Tunai,not sure,not sure,not sure,not sure,not sure,yes,not sure,not sure,not sure,no,no
126,1642426641046291,Jasuke & Burger Jeletot,[ Barat ],False,-6.893457,107.585003," Bandung Trade Center, Lantai Semi Basement Jl. Dr. Djunjunan No. 143 - 149, Pasteur, Bandung ", Di bawah Rp. 50.000 /orang ,0.0,0.0,0.0,0.0,0.0,0.0,Senin - Minggu (10:00 - 21:00),Tunai,no,no,no,no,no,yes,no,no,yes,no,no
127,1642426641687307,Tong Tji,[ Minuman ],False,-6.891127,107.571949," Borma Dakota Jl. Dakota No. 109, Pasteur, Bandung ", Di bawah Rp. 50.000 /orang ,0.0,0.0,0.0,0.0,0.0,0.0,Senin - Minggu (09:00 - 21:00),Tunai,no,no,no,no,no,yes,no,no,yes,no,no
128,164242664230473,Bandulan Tea,[ Minuman ],False,-6.893457,107.585003," Bandung Trade Center, Lantai Lower Ground Jl. Dr. Djunjunan No. 143 - 149, Pasteur, Bandung ", Di bawah Rp. 50.000 /orang ,0.0,0.0,0.0,0.0,0.0,0.0,Senin - Minggu (10:00 - 21:00),Tunai,no,no,no,no,no,yes,no,no,yes,no,no
129,1642426642943441,Pempek 8 Ulu Palembang,[ Indonesia ],False,-6.895246,107.588263," Food Court Griya Pasteur Jl. Dr. Djunjunan No. 115, Pasteur, Bandung ", Di bawah Rp. 50.000 /orang ,0.0,0.0,0.0,0.0,0.0,0.0,not listed,Tunai,not sure,not sure,yes,not sure,not sure,yes,no,not sure,not sure,no,no
130,164242664362325,Pempek 8 Ulu Palembang,[ Indonesia ],False,-6.891127,107.571949," Food Court Borma Dakota Jl. Dakota No. 109, Pasteur, Bandung ", Di bawah Rp. 50.000 /orang ,0.0,0.0,0.0,0.0,0.0,0.0,Senin - Minggu (09:00 - 21:00),Tunai,no,no,yes,no,no,yes,no,no,yes,no,no
131,1642426644182688,Nakumie,[ Indonesia ],False,-6.891127,107.571949," Food Court Borma Dakota Jl. Dakota No. 109, Pasteur, Bandung ", Di bawah Rp. 50.000 /orang ,0.0,0.0,0.0,0.0,0.0,0.0,Senin - Minggu (09:00 - 21:00),Tunai,no,no,yes,no,no,yes,no,no,yes,no,no
132,1642426644845942,Baso Sariwangi,[ Indonesia ],False,-6.895246,107.588263," Food Court Griya Pasteur Jl. Dr. Djunjunan No. 115, Pasteur, Bandung ", Di bawah Rp. 50.000 /orang ,0.0,0.0,0.0,0.0,0.0,0.0,not listed,Tunai,not sure,not sure,yes,not sure,not sure,yes,not sure,not sure,not sure,no,no
133,1642426645443466,Sei Sapi Semerbak,[ Indonesia ],False,-6.89309,107.57473," Jl. Sukaraja II No. 313, Pasteur, Bandung ", Di bawah Rp. 50.000 /orang ,0.0,0.0,0.0,0.0,0.0,0.0,not listed,Tunai,not sure,not sure,not sure,not sure,no,yes,not sure,not sure,not sure,not sure,no
134,1642426646135377,Monomyth Cafe,[ Kafe ],False,-6.890451,107.572426," Ruko Istana Pasteur Regency, Blok CRA No. 17 Jl. Sukaraja, Gunung Batu, Bandung ", Di bawah Rp. 50.000 /orang ,0.0,0.0,0.0,0.0,0.0,0.0,"Selasa - Minggu (08:00 - 22:00), Senin Tutup","Tunai,Visa,Master,Debet",yes,no,no,no,no,yes,no,yes,yes,no,no
135,1642426646761664,Pusako Masakan Padang,[ Indonesia ],False,-6.9126,107.601702," Jl. Kebon Kawung No. 7 (Seberang Mitra Sederhana Pasteur), Pasir Kaliki, Bandung ", Di bawah Rp. 50.000 /orang ,0.0,0.0,0.0,0.0,0.0,0.0,Senin - Minggu (10:00 - 22:00),Tunai,no,no,yes,no,no,yes,no,no,yes,no,no
136,1642426647444312,Mie Kocok Rizky,[ Indonesia ],False,-6.897515,107.592214," Jl. Dr. Djunjunan No. 39, Pasteur, Bandung ", Di bawah Rp. 50.000 /orang ,0.0,0.0,0.0,0.0,0.0,0.0,Senin - Minggu (09:00 - 21:00),"Tunai,Debet",no,no,yes,no,no,yes,no,no,yes,no,no
137,1642426648068782,Ayam Goreng Sari Mulia,[ Indonesia ],False,-6.9126,107.601702," Jl. Kebon Kawung No. 7 (Seberang Mitra Sederhana Pasteur), Pasir Kaliki, Bandung ", Di bawah Rp. 50.000 /orang ,0.0,0.0,0.0,0.0,0.0,0.0,Senin - Minggu (14:00 - 24:00),Tunai,no,no,yes,no,no,yes,no,no,no,no,no
138,1642426648762114,Batagor Riri,[ Indonesia ],False,-6.897515,107.592214," Jl. Dr. Djunjunan No. 39, Pasteur, Bandung ", Di bawah Rp. 50.000 /orang ,0.0,0.0,0.0,0.0,0.0,0.0,Senin - Minggu (09:00 - 21:00),"Tunai,Debet",no,no,yes,no,no,yes,no,no,yes,no,no
139,1642426649477233,Warung Sate Shinta,[ Indonesia ],False,-6.893762,107.586977," Jl. Dr. Djunjunan No. 164, Pasteur, Bandung ", Rp. 50.000 - Rp. 100.000 /orang ,0.0,0.0,0.0,0.0,0.0,0.0,"Senin - Jumat (09:00 - 22:00), Sabtu (09:00 - 24:00), Minggu (09:00 - 22:00)",Tunai,no,no,yes,yes,no,yes,no,yes,yes,no,no
140,1642426650132437,Batagor Rizky,[ Indonesia ],False,-6.897515,107.592214," Jl. Dr. Djunjunan No. 39, Pasteur, Bandung ", Di bawah Rp. 50.000 /orang ,0.0,0.0,0.0,0.0,0.0,0.0,Senin - Minggu (09:00 - 21:00),"Tunai,Debet",no,no,yes,no,no,yes,no,no,yes,no,no
141,1642426650740052,Gepuk Ny. Ong,[ Indonesia ],False,-6.892525,107.583171," Jl. Dr. Djunjunan No. 155A, Pasteur, Bandung ", Di bawah Rp. 50.000 /orang ,0.0,0.0,0.0,0.0,0.0,0.0,Senin - Minggu (07:30 - 21:00),"Tunai,Visa,Master,Debet,Go-pay,Ovo",no,yes,yes,no,no,yes,no,yes,yes,no,no
142,1642426651375293,DenHaag Klappertaart,[ Toko Kue ],False,-6.897925,107.592826," Jl. Dr. Djunjunan No. 35, Pasteur, Bandung ", Di bawah Rp. 50.000 /orang ,0.0,0.0,0.0,0.0,0.0,0.0,Senin - Minggu (07:30 - 20:30),"Tunai,Visa,Master,Debet",no,no,yes,no,no,yes,no,no,yes,no,no
143,1642426652037617,Warung Cepot,[ Indonesia ],False,-6.892525,107.583171," Jl. Dr. Djunjunan No. 155D, Pasteur, Bandung ", Di bawah Rp. 50.000 /orang ,0.0,0.0,0.0,0.0,0.0,0.0,Senin - Minggu (09:00 - 22:00),"Tunai,Visa,Master,Debet,Go-pay,Ovo",no,yes,yes,no,no,yes,no,yes,yes,no,no
144,1642426653985078,Tahu Korowot,[ Indonesia ],False,-6.892525,107.583171," Jl. Dr. Djunjunan No. 155D (Depan Warung Cepot), Pasteur, Bandung ", Di bawah Rp. 50.000 /orang ,0.0,0.0,0.0,0.0,0.0,0.0,Senin - Minggu (09:00 - 22:00),"Tunai,Visa,Master,Debet,Go-pay,Ovo",no,no,yes,no,no,yes,no,no,yes,no,no
145,1642426654598253,Dapur AL,[ Indonesia ],False,-6.893769,107.572674," Pujasera Joglo Jl. Dakota No. 1, Pasteur, Bandung ", Di bawah Rp. 50.000 /orang ,0.0,0.0,0.0,0.0,0.0,0.0,Senin - Minggu (08:00 - 20:00),Tunai,yes,no,yes,yes,no,yes,no,no,yes,no,no
146,1642426655199028,Dapur Kambing 3,[ Indonesia ],False,-6.893769,107.572674," Pujasera Joglo Jl. Dakota No. 1, Pasteur, Bandung ", Di bawah Rp. 50.000 /orang ,0.0,0.0,0.0,0.0,0.0,0.0,Senin - Minggu (08:00 - 20:00),Tunai,yes,no,yes,yes,no,yes,no,no,yes,no,no
147,164242665586331,Meeting Point Cafe,[ Kafe ],False,-6.892524,107.583326," Mayasari Bakery, Lantai 2 Jl. Dr. Djunjunan No. 155, Pasteur, Bandung ", Rp. 50.000 - Rp. 100.000 /orang ,0.0,0.0,0.0,0.0,0.0,0.0,Senin - Minggu (07:00 - 22:00),"Tunai,Visa,Master,Debet",yes,no,yes,yes,no,yes,no,yes,yes,no,no
148,164242665658941,Soto Ayam Garang Asem Bangkok,[ Indonesia ],False,-6.893687,107.572392," Jl. Dakota No. 28, Pasteur, Bandung ", Di bawah Rp. 50.000 /orang ,0.0,0.0,0.0,0.0,0.0,0.0,Senin - Minggu (09:00 - 22:00),Tunai,no,yes,yes,no,no,yes,no,yes,yes,no,no
149,1642426657256568,& Coffee,[ Minuman ],False,-6.892803592128858,107.58," Jl. Dr. Djunjunan No. 153, Pasteur, Bandung ", Di bawah Rp. 50.000 /orang ,0.0,0.0,0.0,0.0,0.0,0.0,Senin - Minggu (08:00 - 21:00),Tunai,not sure,not sure,yes,no,no,yes,no,no,not sure,no,no
150,1642426657997857,Mayasari Bakery,[ Toko Roti dan Kue ],False,-6.893457,107.585003," Bandung Trade Center, Lantai Lower Ground Jl. Dr. Djunjunan No. 143 - 149, Pasteur, Bandung ", Di bawah Rp. 50.000 /orang ,0.0,0.0,0.0,0.0,0.0,0.0,Senin - Minggu (10:00 - 21:00),Tunai,no,no,no,no,no,yes,no,no,yes,no,no
151,1642426658605785,Dunkin' Donuts,[ Kafe ],False,-6.893457,107.585003," Bandung Trade Center, Lantai Ground Jl. Dr. Djunjunan No. 143 - 149, Pasteur, Bandung ", Di bawah Rp. 50.000 /orang ,0.0,0.0,0.0,0.0,0.0,0.0,Senin - Minggu (10:00 - 21:00),"Tunai,Visa,Master,Debet",no,no,no,no,no,yes,no,no,yes,no,no
152,164242665923188,Think Thai,[ Minuman ],False,-6.893335,107.584876," Bandung Trade Center, Lantai 1, Food City Jl. Dr. Djunjunan 143 - 149, Pasteur, Bandung ", Di bawah Rp. 50.000 /orang ,0.0,0.0,0.0,0.0,0.0,0.0,Senin - Minggu (10:00 - 21:00),"Tunai,Go-pay,Ovo",no,no,yes,yes,no,yes,no,no,yes,no,no
153,1642426659890731,Tuk Tuk Cha,[ Minuman ],False,-6.893331,107.5849826," Bandung Trade Center, Lantai 1 Jl. Dr. Djunjunan 143 - 149, Pasteur, Bandung ", Di bawah Rp. 50.000 /orang ,0.0,0.0,0.0,0.0,0.0,0.0,Senin - Minggu (10:00 - 21:00),"Tunai,Visa,Master,Debet,Go-pay,Ovo",no,no,no,no,no,yes,no,no,yes,no,no
154,1642426660457065,Bastra Coffee & Eatery - Hotel Nyland Pasteur,[ Kafe ],False,-6.894997953449334,107.58," Hotel Nyland Pasteur Jl. Dr. Djunjunan 125, Pasteur, Bandung ", Di bawah Rp. 50.000 /orang ,0.0,0.0,0.0,0.0,0.0,0.0,"Senin - Kamis (08:00 - 22:00), Jumat - Minggu (07:00 - 22:00)","Tunai,Debet,Go-pay,Ovo",yes,no,yes,yes,no,yes,no,yes,yes,no,no
155,1642426661045342,Dapur Abah Steak,[ Barat ],False,-6.893769,107.572674," Pujasera Joglo Jl. Dakota No. 1, Pasteur, Bandung ", Di bawah Rp. 50.000 /orang ,0.0,0.0,0.0,0.0,0.0,0.0,Senin - Minggu (08:00 - 20:00),Tunai,yes,no,yes,yes,no,yes,no,no,yes,no,no
156,1642426661669944,Dapur Seafood,[ Indonesia ],False,-6.893769,107.572674," Pujasera Joglo Jl. Dakota No. 1, Pasteur, Bandung ", Di bawah Rp. 50.000 /orang ,0.0,0.0,0.0,0.0,0.0,0.0,Senin - Minggu (08:00 - 20:00),Tunai,yes,no,yes,yes,no,yes,no,no,yes,no,no
157,1642426662342548,Dapur Alya,[ Indonesia ],False,-6.893769,107.572674," Pujasera Joglo Jl. Dakota No. 1, Pasteur, Bandung ", Di bawah Rp. 50.000 /orang ,0.0,0.0,0.0,0.0,0.0,0.0,Senin - Minggu (08:00 - 20:00),Tunai,yes,no,yes,yes,no,yes,no,no,yes,no,no
158,1642426662929839,Air Mata Kucing,[ Minuman ],False,-6.893316,107.584849," Bandung Trade Center, Lantai Semi Basement Jl. Dr. Djunjunan No. 143 - 149, Pasteur, Bandung ", Di bawah Rp. 50.000 /orang ,0.0,0.0,0.0,0.0,0.0,0.0,Senin - Minggu (10:00 - 21:00),Tunai,no,no,no,no,no,yes,no,no,yes,no,no
159,1642426663590546,Dapur Bang Jali,[ Indonesia ],False,-6.893769,107.572674," Pujasera Joglo Jl. Dakota No. 1, Pasteur, Bandung ", Di bawah Rp. 50.000 /orang ,0.0,0.0,0.0,0.0,0.0,0.0,Senin - Minggu (08:00 - 20:00),Tunai,yes,no,yes,yes,no,yes,no,no,yes,no,no
160,1642426664268124,Aneka Minuman,[ Minuman ],False,-6.893769,107.572674," Pujasera Joglo Jl. Dakota No. 1, Pasteur, Bandung ", Di bawah Rp. 50.000 /orang ,0.0,0.0,0.0,0.0,0.0,0.0,Senin - Minggu (08:00 - 20:00),Tunai,yes,no,yes,yes,no,yes,no,no,yes,no,no
161,1642426664895049,Jajanan Etnik,[ Indonesia ],False,-6.893331,107.5849826," Bandung Trade Center, Lantai 1 Jl. Dr. Djunjunan No. 143 - 149, Pasteur, Bandung ", Di bawah Rp. 50.000 /orang ,0.0,0.0,0.0,0.0,0.0,0.0,Senin - Minggu (10:00 - 21:00),"Tunai,Ovo",no,no,no,no,no,yes,no,no,yes,no,no
162,164242666551083,Mie Baso Moro Seneng,[ Indonesia ],False,-6.893769,107.572674," Pujasera Joglo Jl. Dakota No. 1, Pasteur, Bandung ", Di bawah Rp. 50.000 /orang ,0.0,0.0,0.0,0.0,0.0,0.0,Senin - Minggu (08:00 - 20:00),Tunai,yes,no,yes,yes,no,yes,no,no,yes,no,no
163,164242666612375,Fruity,[ Minuman ],False,-6.893331,107.5849826," Bandung Trade Center, Lantai 1 Jl. Dr. Djunjunan No. 143 - 149, Pasteur, Bandung ", Di bawah Rp. 50.000 /orang ,0.0,0.0,0.0,0.0,0.0,0.0,Senin - Minggu (10:00 - 21:00),"Tunai,Debet,Go-pay,Ovo",no,no,no,no,no,yes,no,no,yes,no,no
164,1642426666715689,Tenno,[ Jepang ],False,-6.893347,107.584917," Bandung Trade Center, Lantai 1, Food City Jl. Dr. Djunjunan No. 143 - 149, Pasteur, Bandung ", Di bawah Rp. 50.000 /orang ,0.0,0.0,0.0,0.0,0.0,0.0,Senin - Minggu (10:00 - 21:00),"Tunai,Ovo",no,no,yes,yes,no,yes,no,no,yes,no,no
165,1642426667355578,Bakmie Jowo Tek Tek,[ Indonesia ],False,-6.893687,107.572392," Jl. Dakota No. 28, Pasteur, Bandung ", Di bawah Rp. 50.000 /orang ,0.0,0.0,0.0,0.0,0.0,0.0,Senin - Minggu (09:00 - 22:00),Tunai,no,yes,yes,no,no,yes,no,yes,yes,no,no
166,1642426667976836,Soup n' Soup,[ Indonesia ],False,-6.893347,107.584917," Bandung Trade Center, Lantai 1, Food City Jl. Dr. Djunjunan No. 143 - 149, Pasteur, Bandung ", Di bawah Rp. 50.000 /orang ,0.0,0.0,0.0,0.0,0.0,0.0,Senin - Minggu (10:00 - 21:00),Tunai,no,no,yes,yes,no,yes,no,no,yes,no,no
167,1642426668506706,Soto Ojolali,[ Indonesia ],False,-6.893335,107.584876," Bandung Trade Center, Lantai 1, Food City Jl. Dr. Djunjunan No. 143 - 149, Pasteur, Bandung ", Di bawah Rp. 50.000 /orang ,0.0,0.0,0.0,0.0,0.0,0.0,Senin - Minggu (10:00 - 21:00),Tunai,no,no,yes,yes,no,yes,no,no,yes,no,no
168,1642426669123298,Soto Betawi Bang Iyan,[ Indonesia ],False,-6.893347,107.584917," Bandung Trade Center, Lantai 1, Food City Jl. Dr. Djunjunan No. 143 - 149, Pasteur, Bandung ", Di bawah Rp. 50.000 /orang ,0.0,0.0,0.0,0.0,0.0,0.0,Senin - Minggu (10:00 - 21:00),Tunai,no,no,yes,yes,no,yes,no,no,yes,no,no
169,1642426669812051,Simanalagi,[ Indonesia ],False,-6.893331,107.5849826," Bandung Trade Center, Lantai 1, Food City Jl. Dr. Djunjunan No. 143 - 149, Pasteur, Bandung ", Di bawah Rp. 50.000 /orang ,0.0,0.0,0.0,0.0,0.0,0.0,Senin - Minggu (10:00 - 21:00),"Tunai,Go-pay,Ovo",no,no,yes,yes,no,yes,no,no,yes,no,no
170,1642426670384416,Rumah Ikan,[ Indonesia ],False,-6.893457,107.585003," Bandung Trade Center, Lantai 1, Food City Jl. Dr. Djunjunan No. 143 - 149, Pasteur, Bandung ", Di bawah Rp. 50.000 /orang ,0.0,0.0,0.0,0.0,0.0,0.0,Senin - Minggu (10:00 - 21:00),Tunai,no,no,yes,yes,no,yes,no,no,yes,no,no
171,1642426670948911,Saboga,[ Indonesia ],False,-6.893347,107.584917," Bandung Trade Center, Lantai 1, Food City Jl. Dr. Djunjunan No. 143 - 149, Pasteur, Bandung ", Di bawah Rp. 50.000 /orang ,0.0,0.0,0.0,0.0,0.0,0.0,Senin - Minggu (10:00 - 21:00),"Tunai,Visa,Master,Debet,Ovo",no,no,yes,yes,no,yes,no,no,yes,no,no
172,1642426671484527,Paradise,[ China ],False,-6.893347,107.584917," Bandung Trade Center, Lantai 1, Food City Jl. Dr. Djunjunan No. 143 - 149, Pasteur, Bandung ", Di bawah Rp. 50.000 /orang ,0.0,0.0,0.0,0.0,0.0,0.0,Senin - Minggu (10:00 - 21:00),Tunai,no,no,yes,yes,no,yes,no,no,yes,no,no
173,1642426672072785,Obiku,[ China ],False,-6.893335,107.584876," Bandung Trade Center, Lantai 1, Food City Jl. Dr. Djunjunan No. 143 - 149, Pasteur, Bandung ", Di bawah Rp. 50.000 /orang ,0.0,0.0,0.0,0.0,0.0,0.0,Senin - Minggu (10:00 - 21:00),Tunai,no,no,yes,yes,no,yes,no,no,yes,no,no
174,1642426672663286,MM Hotplate,"[ Indonesia,Barat,Jepang ]",False,-6.893347,107.584917," Bandung Trade Center, Lantai 1, Food City Jl. Dr. Djunjunan No. 143 - 149, Pasteur, Bandung ", Di bawah Rp. 50.000 /orang ,0.0,0.0,0.0,0.0,0.0,0.0,Senin - Minggu (10:00 - 21:00),Tunai,no,no,yes,yes,no,yes,no,no,yes,no,no
175,1642426673249246,Masakan Rumah Citarasa,[ Indonesia ],False,-6.893347,107.584917," Bandung Trade Center, Lantai 1, Food City Jl. Dr. Djunjunan No. 143 - 149, Pasteur, Bandung ", Di bawah Rp. 50.000 /orang ,0.0,0.0,0.0,0.0,0.0,0.0,Senin - Minggu (10:00 - 21:00),Tunai,no,no,yes,yes,no,yes,no,no,yes,no,no
176,1642426673857182,Lotek Raos,[ Indonesia ],False,-6.893347,107.584917," Bandung Trade Center, Lantai 1, Food City Jl. Dr. Djunjunan No. 143 - 149, Pasteur, Bandung ", Di bawah Rp. 50.000 /orang ,0.0,0.0,0.0,0.0,0.0,0.0,Senin - Minggu (10:00 - 21:00),Tunai,no,no,yes,yes,no,yes,no,no,yes,no,no
177,1642426674405047,Kwetiau & Baso 28,[ Indonesia ],False,-6.893347,107.584917," Bandung Trade Center, Lantai 1, Food City Jl. Dr. Djunjunan No. 143 - 149, Pasteur, Bandung ", Di bawah Rp. 50.000 /orang ,0.0,0.0,0.0,0.0,0.0,0.0,Senin - Minggu (10:00 - 21:00),"Tunai,Visa,Master,Debet,Go-pay",no,no,yes,yes,no,yes,no,no,yes,no,no
178,1642426675205724,King's Resto,[ Indonesia ],False,-6.893347,107.584917," Bandung Trade Center, Lantai 1, Food City Jl. Dr. Djunjunan No. 143 - 149, Pasteur, Bandung ", Rp. 50.000 - Rp. 100.000 /orang ,0.0,0.0,0.0,0.0,0.0,0.0,Senin - Minggu (10:00 - 21:00),"Tunai,Go-pay,Ovo",no,no,yes,yes,no,yes,no,no,yes,no,no
179,1642426675837574,Kedai Legit,[ Indonesia ],False,-6.893347,107.584917," Bandung Trade Center, Lantai 1, Food City Jl. Dr. Djunjunan No. 143 - 149, Pasteur, Bandung ", Di bawah Rp. 50.000 /orang ,0.0,0.0,0.0,0.0,0.0,0.0,Senin - Minggu (10:00 - 21:00),Tunai,no,no,yes,yes,no,yes,no,no,yes,no,no
180,1642426676527593,Jiwa Toast,[ Barat ],False,-6.893479,107.584686," Bandung Trade Center, Lantai Ground Jl. Dr. Djunjunan 143 - 149, Pasteur, Bandung ", Di bawah Rp. 50.000 /orang ,0.0,0.0,0.0,0.0,0.0,0.0,Senin - Minggu (07:30 - 18:30),Tunai,not sure,not sure,not sure,not sure,no,yes,not sure,not sure,yes,no,no
181,1642426677155915,Daily Fresh,[ Snack ],False,-6.893335,107.584876," Bandung Trade Center, Lantai 1, Food City Jl. Dr. Djunjunan No. 143 - 149, Pasteur, Bandung ", Di bawah Rp. 50.000 /orang ,0.0,0.0,0.0,0.0,0.0,0.0,Senin - Minggu (10:00 - 21:00),Tunai,no,no,yes,yes,no,yes,no,no,yes,no,no
182,1642426677782793,Warung Nasi Khas Sunda Sukamulya,[ Indonesia ],False,-6.889049,107.588044," Foodcourt Sukamulya Jl. Terusan Sukamulya No. 70, Pasteur, Bandung ", Di bawah Rp. 50.000 /orang ,0.0,0.0,0.0,0.0,0.0,0.0,Senin - Minggu (10:30 - 22:00),"Tunai,Go-pay,Ovo",yes,yes,yes,no,no,yes,no,yes,yes,no,no
183,1642426678480998,Choco - Latte Coffee,[ Minuman ],False,-6.893331,107.5849826," Bandung Trade Center, Lantai 1, Food City Jl. Dr. Djunjunan No. 143 - 149, Pasteur, Bandung ", Di bawah Rp. 50.000 /orang ,0.0,0.0,0.0,0.0,0.0,0.0,Senin - Minggu (10:00 - 21:00),"Tunai,Go-pay,Ovo",no,no,yes,yes,no,yes,no,no,yes,no,no
184,1642426679332006,Ayam Geprek 88,[ Indonesia ],False,-6.889049,107.588044," Foodcourt Sukamulya Jl. Terusan Sukamulya No. 70, Pasteur, Bandung ", Di bawah Rp. 50.000 /orang ,0.0,0.0,0.0,0.0,0.0,0.0,Senin - Minggu (10:30 - 22:00),"Tunai,Go-pay,Ovo",yes,yes,yes,no,no,yes,no,yes,yes,no,no
185,1642426680339439,A Pao Chinese Food,[ China ],False,-6.889049,107.588044," Foodcourt Sukamulya Jl. Terusan Sukamulya No. 70, Pasteur, Bandung ", Di bawah Rp. 50.000 /orang ,0.0,0.0,0.0,0.0,0.0,0.0,Senin - Minggu (10:30 - 22:00),"Tunai,Go-pay,Ovo",yes,yes,yes,no,no,yes,no,yes,yes,no,no
186,1642426681109072,Belgian Wafel,[ Snack ],False,-6.893335,107.584876," Bandung Trade Center, Lantai 1, Food City Jl. Dr. Djunjunan No. 143 - 149, Pasteur, Bandung ", Di bawah Rp. 50.000 /orang ,0.0,0.0,0.0,0.0,0.0,0.0,Senin - Minggu (10:00 - 21:00),Tunai,no,no,yes,yes,no,yes,no,no,yes,no,no
187,1642426681768339,Bebek Penyet Presto Poexi,[ Indonesia ],False,-6.893347,107.584917," Bandung Trade Center, Lantai 1, Food City Jl. Dr. Djunjunan No. 143 - 149, Pasteur, Bandung ", Di bawah Rp. 50.000 /orang ,0.0,0.0,0.0,0.0,0.0,0.0,Senin - Minggu (10:00 - 21:00),"Tunai,Visa,Master,Debet,Go-pay,Ovo",no,no,yes,yes,no,yes,no,no,yes,no,no
188,1642426682355997,Air Mata Kucing,[ Minuman ],False,-6.893335,107.584876," Bandung Trade Center, Lantai 1, Food City Jl. Dr. Djunjunan No. 143 - 149, Pasteur, Bandung ", Di bawah Rp. 50.000 /orang ,0.0,0.0,0.0,0.0,0.0,0.0,Senin - Minggu (10:00 - 21:00),Tunai,no,no,yes,yes,no,yes,no,no,yes,no,no
189,1642426682956537,Gudeg Eco Dakota,[ Indonesia ],False,-6.891127,107.571949," Food Court Borma Dakota Jl. Dakota No. 109, Pasteur, Bandung ", Di bawah Rp. 50.000 /orang ,0.0,0.0,0.0,0.0,0.0,0.0,Senin - Minggu (09:00 - 21:00),Tunai,no,no,yes,no,no,yes,no,no,yes,no,no
190,1642426683807805,Seleraku,[ Indonesia ],False,-6.891127,107.571949," Food Court Borma Dakota Jl. Dakota No. 109, Pasteur, Bandung ", Di bawah Rp. 50.000 /orang ,0.0,0.0,0.0,0.0,0.0,0.0,Senin - Minggu (09:00 - 21:00),Tunai,no,no,yes,no,no,yes,no,no,yes,no,no
191,1642426684374111,Ayam Penyet Sambal Jeletot,[ Indonesia ],False,-6.891127,107.571949," Food Court Borma Dakota Jl. Dakota No. 109, Pasteur, Bandung ", Di bawah Rp. 50.000 /orang ,0.0,0.0,0.0,0.0,0.0,0.0,Senin - Minggu (09:00 - 21:00),Tunai,no,no,yes,no,no,yes,no,no,yes,no,no
192,1642426685351085,Mie Kocok Pa Denis,[ Indonesia ],False,-6.891127,107.571949," Food Court Borma Dakota Jl. Dakota No. 109, Pasteur, Bandung ", Di bawah Rp. 50.000 /orang ,0.0,0.0,0.0,0.0,0.0,0.0,Senin - Minggu (09:00 - 21:00),Tunai,no,no,yes,no,no,yes,no,no,yes,no,no
193,1642426685927199,Bola Obi Gardujati,[ Snack ],False,-6.895383,107.588328," Griya Pasteur Jl. Dr. Djunjunan No. 115, Pasteur, Bandung ", Di bawah Rp. 50.000 /orang ,0.0,0.0,0.0,0.0,0.0,0.0,Senin - Minggu (09:00 - 21:00),Tunai,no,no,yes,no,no,yes,no,no,yes,no,no
194,1642426686574805,Dolce Gusto,[ Minuman ],False,-6.889049,107.588044," Foodcourt Sukamulya Jl. Terusan Sukamulya No. 70, Pasteur, Bandung ", Di bawah Rp. 50.000 /orang ,0.0,0.0,0.0,0.0,0.0,0.0,Senin - Minggu (10:30 - 22:00),"Tunai,Go-pay,Ovo",yes,yes,yes,no,no,yes,no,yes,yes,no,no
195,1642426687248508,Sate Taichan 95,[ Indonesia ],False,-6.889049,107.588044," Foodcourt Sukamulya Jl. Terusan Sukamulya No. 70, Pasteur, Bandung ", Di bawah Rp. 50.000 /orang ,0.0,0.0,0.0,0.0,0.0,0.0,Senin - Minggu (10:30 - 22:00),"Tunai,Go-pay,Ovo",yes,yes,yes,no,no,yes,no,yes,yes,no,no
196,1642426687922236,Joomba,[ Minuman ],False,-6.893161,107.58512," Bandung Trade Center, Lantai Ground, Monsoon Cafe Jl. Dr. Djunjunan 143 - 149, Pasteur, Bandung ", Di bawah Rp. 50.000 /orang ,0.0,0.0,0.0,0.0,0.0,0.0,not listed,Tunai,not sure,not sure,not sure,not sure,not sure,yes,not sure,not sure,yes,no,no
197,1642426688638943,DK Banana Nugget,[ Snack ],False,-6.889049,107.588044," Foodcourt Sukamulya Jl. Terusan Sukamulya No. 70, Pasteur, Bandung ", Di bawah Rp. 50.000 /orang ,0.0,0.0,0.0,0.0,0.0,0.0,Senin - Minggu (10:30 - 22:00),"Tunai,Go-pay,Ovo",yes,yes,yes,no,no,yes,no,yes,yes,no,no
198,1642426689452866,Es Kepal SM,[ Dessert ],False,-6.889049,107.588044," Foodcourt Sukamulya Jl. Terusan Sukamulya No. 70, Pasteur, Bandung ", Di bawah Rp. 50.000 /orang ,0.0,0.0,0.0,0.0,0.0,0.0,Senin - Minggu (10:30 - 22:00),"Tunai,Go-pay,Ovo",yes,yes,yes,no,no,yes,no,yes,yes,no,no
199,1642426690172825,Martabak Akang,[ Indonesia ],False,-6.889049,107.588044," Foodcourt Sukamulya Jl. Terusan Sukamulya No. 70, Pasteur, Bandung ", Di bawah Rp. 50.000 /orang ,0.0,0.0,0.0,0.0,0.0,0.0,Senin - Minggu (10:30 - 22:00),"Tunai,Go-pay,Ovo",yes,yes,yes,no,no,yes,no,yes,yes,no,no
200,1642426690855896,Cendol Queen Elizabeth,[ Minuman ],False,-6.893331,107.5849826," Bandung Trade Center, Lantai Semi Basemant Jl. Dr. Djunjunan 143 - 149, Pasteur, Bandung ", Di bawah Rp. 50.000 /orang ,0.0,0.0,0.0,0.0,0.0,0.0,Senin - Minggu (10:00 - 21:00),Tunai,no,no,no,no,no,yes,no,no,yes,no,no
201,164242669166068,Pillow Park Cafe,[ Kafe ],False,-6.89206,107.572803," Jl. Dakota No. 48, Pasteur, Bandung ", Rp. 50.000 - Rp. 100.000 /orang ,0.0,0.0,0.0,0.0,0.0,0.0,"Senin - Jumat (11:00 - 20:00), Sabtu - Minggu (10:00 - 21:00)","Tunai,Debet,Go-pay,Ovo,Dana",no,no,yes,yes,no,yes,no,yes,yes,no,no
202,1642426692483222,Dapur Ayam Rasa,[ Indonesia ],False,-6.890685,107.573199," Ruko Istana Pasteur Regency, Blok CRA No. 37 Jl. Terusan Gunung Batu, Gunung Batu, Bandung ", Di bawah Rp. 50.000 /orang ,0.0,0.0,0.0,0.0,0.0,0.0,"Senin - Sabtu (11:00 - 20:00), Minggu Tutup",Tunai,no,no,yes,no,no,yes,no,yes,yes,no,no
203,1642426693473262,Geprek Maniak,[ Indonesia ],False,-6.891112,107.57571," Ruko Istana Pasteur Regency, Blok CRB No. 91 Jl. Terusan Gunung Batu, Gunung Batu, Bandung ", Di bawah Rp. 50.000 /orang ,0.0,0.0,0.0,0.0,0.0,0.0,Senin - Minggu (10:00 - 21:00),"Tunai,Debet",no,no,yes,yes,no,yes,no,yes,yes,no,no
204,1642426694157542,Querra Real Juice,[ Minuman ],False,-6.893331,107.5849826," Bandung Trade Center, Lantai 1, Food City Jl. Dr. Djunjunan No. 143 - 149, Pasteur, Bandung ", Di bawah Rp. 50.000 /orang ,0.0,0.0,0.0,0.0,0.0,0.0,Senin - Minggu (10:00 - 21:00),Tunai,no,no,yes,yes,no,yes,no,no,yes,no,no
205,1642426694964411,Lomie Ayam Permata,[ Indonesia ],False,-6.893331,107.5849826," Bandung Trade Center, Lantai 1, Food City Jl. Dr. Djunjunan No. 143 - 149, Pasteur, Bandung ", Di bawah Rp. 50.000 /orang ,0.0,0.0,0.0,0.0,0.0,0.0,Senin - Minggu (10:00 - 21:00),Tunai,no,no,yes,yes,no,yes,no,no,yes,no,no
206,1642426696848364,Gudeg Bu Sri,[ Indonesia ],False,-6.893335,107.584876," Bandung Trade Center, Lantai 1, Food City Jl. Dr. Djunjunan No. 143 - 149, Pasteur, Bandung ", Di bawah Rp. 50.000 /orang ,0.0,0.0,0.0,0.0,0.0,0.0,Senin - Minggu (10:00 - 21:00),Tunai,no,no,yes,yes,no,yes,no,no,yes,no,no
207,164242669760954,Maru,[ Minuman ],False,-6.893331,107.5849826," Bandung Trade Center, Lantai 1 Jl. Dr. Djunjunan No. 143 - 149, Pasteur, Bandung ", Di bawah Rp. 50.000 /orang ,0.0,0.0,0.0,0.0,0.0,0.0,Senin - Minggu (10:00 - 21:00),Tunai,no,no,no,no,no,yes,no,no,yes,no,no
208,1642426698377114,Nasi Goreng Gila Khas Jakarta,[ Indonesia ],False,-6.893347,107.584917," Bandung Trade Center, Lantai 1, Food City Jl. Dr. Djunjunan No. 143 - 149, Pasteur, Bandung ", Di bawah Rp. 50.000 /orang ,0.0,0.0,0.0,0.0,0.0,0.0,Senin - Minggu (10:00 - 21:00),"Tunai,Visa,Master,Debet,Go-pay",no,no,yes,yes,no,yes,no,no,yes,no,no
209,1642426699232336,Lapis Van Java,[ Toko Kue ],False,-6.893331,107.5849826," Bandung Trade Center, Area Luar Jl. Dr. Djunjunan No. 143 - 149, Pasteur, Bandung ", Di bawah Rp. 50.000 /orang ,0.0,0.0,0.0,0.0,0.0,0.0,Senin - Minggu (10:00 - 21:00),"Tunai,Go-pay",no,no,no,no,no,yes,no,no,yes,no,no
210,1642426699927177,Kukii Japanese Cheesecake,[ Toko Kue ],False,-6.893156,107.58512," Bandung Trade Center, Area Luar Jl. Dr. Djunjunan No. 143 - 149, Pasteur, Bandung ", Di bawah Rp. 50.000 /orang ,0.0,0.0,0.0,0.0,0.0,0.0,Senin - Minggu (10:00 - 21:00),Tunai,no,no,not sure,not sure,no,yes,no,no,yes,no,no
211,164242670056133,Nyoklat,[ Minuman ],False,-6.891127,107.571949," Borma Dakota Jl. Dakota No. 109, Pasteur, Bandung ", Di bawah Rp. 50.000 /orang ,0.0,0.0,0.0,0.0,0.0,0.0,Senin - Minggu (09:00 - 21:00),Tunai,no,no,no,no,no,yes,no,no,yes,no,no
212,1642426701285788,B/A/P Bakmi Ayam Pedas,[ Indonesia ],False,-6.893331,107.5849826," Bandung Trade Center, Lantai 1, Food City Jl. Dr. Djunjunan No. 143 - 149, Pasteur, Bandung ", Di bawah Rp. 50.000 /orang ,0.0,0.0,0.0,0.0,0.0,0.0,Senin - Minggu (10:00 - 21:00),Tunai,no,no,yes,yes,no,yes,no,no,yes,no,no
213,1642426702032352,Bread.Co,[ Toko Roti dan Kue ],False,-6.893457,107.585003," Bandung Trade Center, Lantai Semi Basement Jl. Dr. Djunjunan 143 - 149, Pasteur, Bandung ", Di bawah Rp. 50.000 /orang ,0.0,0.0,0.0,0.0,0.0,0.0,Senin - Minggu (10:00 - 21:00),Tunai,no,no,no,no,no,yes,no,no,yes,no,no
214,1642426702801477,Teh Cap Poci,[ Minuman ],False,-6.893335,107.584876," Bandung Trade Center, Lantai 1, Food City Jl. Dr. Djunjunan No. 143 - 149, Pasteur, Bandung ", Di bawah Rp. 50.000 /orang ,0.0,0.0,0.0,0.0,0.0,0.0,Senin - Minggu (10:00 - 21:00),Tunai,no,no,yes,yes,no,yes,no,no,yes,no,no
215,1642426703542764,Chicken Crumbs,[ Snack ],False,-6.893335,107.584876," Bandung Trade Center, Lantai 1, Food City Jl. Dr. Djunjunan No. 143 - 149, Pasteur, Bandung ", Di bawah Rp. 50.000 /orang ,0.0,0.0,0.0,0.0,0.0,0.0,Senin - Minggu (10:00 - 21:00),Tunai,no,no,yes,yes,no,yes,no,no,yes,no,no
216,1642426704387393,Mirasa Sambal Seuhah,[ Indonesia ],False,-6.891127,107.571949," Food Court Borma Dakota Jl. Dakota No. 109, Pasteur, Bandung ", Di bawah Rp. 50.000 /orang ,0.0,0.0,0.0,0.0,0.0,0.0,Senin - Minggu (09:00 - 21:00),Tunai,no,no,yes,no,no,yes,no,no,yes,no,no
217,1642426705250221,Kedai Ojol Wa'Nanung,[ Indonesia ],False,-6.893331,107.5849826," Bandung Trade Center, Lantai 1, Food City Jl. Dr. Djunjunan No. 143 - 149, Pasteur, Bandung ", Di bawah Rp. 50.000 /orang ,0.0,0.0,0.0,0.0,0.0,0.0,Senin - Minggu (10:00 - 21:00),Tunai,no,no,yes,yes,no,yes,no,no,yes,no,no
218,1642426706120459,XCrepes,[ Crepes ],False,-6.893457,107.585003," Bandung Trade Center, Lantai Semi Basement Jl. Dr. Djunjunan No. 143 - 149, Pasteur, Bandung ", Di bawah Rp. 50.000 /orang ,0.0,0.0,0.0,0.0,0.0,0.0,Senin - Minggu (10:00 - 21:00),Tunai,no,no,no,no,no,yes,no,no,yes,no,no
219,1642426706914086,Soto Bang Jon,[ Indonesia ],False,-6.893347,107.584917," Bandung Trade Center, Lantai 1, Food City Jl. Dr. Djunjunan No. 143 - 149, Pasteur, Bandung ", Di bawah Rp. 50.000 /orang ,0.0,0.0,0.0,0.0,0.0,0.0,Senin - Minggu (10:00 - 21:00),"Tunai,Visa,Master,Debet,Go-pay,Ovo",no,no,yes,yes,no,yes,no,no,yes,no,no
220,1642426707807986,Mie Tarik King,[ Indonesia ],False,-6.893347,107.584917," Bandung Trade Center, Lantai 1, Food City Jl. Dr. Djunjunan No. 143 - 149, Pasteur, Bandung ", Di bawah Rp. 50.000 /orang ,0.0,0.0,0.0,0.0,0.0,0.0,Senin - Minggu (10:00 - 21:00),"Tunai,Go-pay",no,no,yes,yes,no,yes,no,no,yes,no,no
221,1642426708628247,Angkringan 597,[ Indonesia ],False,-6.893331,107.5849826," Bandung Trade Center, Lantai 1, Food City Jl. Dr. Djunjunan No. 143 - 149, Pasteur, Bandung ", Di bawah Rp. 50.000 /orang ,0.0,0.0,0.0,0.0,0.0,0.0,Senin - Minggu (10:00 - 21:00),Tunai,no,no,yes,yes,no,yes,no,no,yes,no,no
222,1642426709348539,Chao Thai Tea,[ Minuman ],False,-6.893156,107.58512," Bandung Trade Center, Lantai Lower Ground Jl. Dr. Djunjunan No. 143 - 149, Pasteur, Bandung ", Di bawah Rp. 50.000 /orang ,0.0,0.0,0.0,0.0,0.0,0.0,Senin - Minggu (10:00 - 21:00),Tunai,no,no,not sure,not sure,no,yes,no,no,yes,no,no
223,1642426710134534,J&C Cookies,[ Toko Kue ],False,-6.893156,107.58512," Bandung Trade Center, Lantai Lower Ground Jl. Dr. Djunjunan 143 - 149, Pasteur, Bandung ", Di bawah Rp. 50.000 /orang ,0.0,0.0,0.0,0.0,0.0,0.0,Senin - Minggu (10:00 - 21:00),Tunai,no,no,no,no,no,yes,no,no,yes,no,no
224,1642426710937492,Cireng Keraton,[ Indonesia ],False,-6.893457,107.585003," Bandung Trade Center, Lantai Semi Basement Jl. Dr. Djunjunan 143 - 149, Pasteur, Bandung ", Di bawah Rp. 50.000 /orang ,0.0,0.0,0.0,0.0,0.0,0.0,Senin - Minggu (10:00 - 21:00),Tunai,no,no,no,no,no,yes,no,no,yes,no,no
225,1642426711721011,RM Kiambang Raya,[ Indonesia ],False,-6.893783,107.574123," Jl. Sukaraja II No. 299, Pasteur, Bandung ", Di bawah Rp. 50.000 /orang ,0.0,0.0,0.0,0.0,0.0,0.0,Senin - Minggu (09:00 - 22:00),Tunai,no,no,yes,no,no,yes,no,no,yes,no,no
226,164242671247446,O.S. Bakery,[ Toko Roti dan Kue ],False,-6.893331,107.5849826," Bandung Trade Center, Lantai 1 Jl. Dr. Djunjunan No. 143 - 149, Pasteur, Bandung ", Di bawah Rp. 50.000 /orang ,0.0,0.0,0.0,0.0,0.0,0.0,Senin - Minggu (10:00 - 21:00),Tunai,no,no,no,no,no,yes,no,no,yes,no,no
227,1642426713253791,Valova,[ Toko Roti dan Kue ],False,-6.893316,107.584849," Bandung Trade Center, Lantai Semi Basement Jl. Dr. Djunjunan 143 - 149, Pasteur, Bandung ", Di bawah Rp. 50.000 /orang ,0.0,0.0,0.0,0.0,0.0,0.0,Senin - Minggu (10:00 - 21:00),Tunai,no,no,no,no,no,yes,no,no,yes,no,no
228,1642426714013034,Ayam Geprek & Bebek Seuhah,[ Indonesia ],False,-6.889057,107.588154," Foodcourt Sukamulya Jl. Terusan Sukamulya No. 70, Pasteur, Bandung ", Di bawah Rp. 50.000 /orang ,0.0,0.0,0.0,0.0,0.0,0.0,"Senin - Jumat (10:00 - 21:00), Sabtu - Minggu (10:00 - 22:00)",Tunai,yes,yes,yes,no,no,yes,no,yes,yes,no,no
229,1642426714668933,Dessert Sukamulya,[ Dessert ],False,-6.889057,107.588154," Foodcourt Sukamulya Jl. Terusan Sukamulya No. 70, Pasteur, Bandung ", Di bawah Rp. 50.000 /orang ,0.0,0.0,0.0,0.0,0.0,0.0,"Senin - Jumat (10:00 - 21:00), Sabtu - Minggu (10:00 - 22:00)",Tunai,yes,yes,yes,no,no,yes,no,yes,yes,no,no
230,1642426715422073,So Sweet,[ Dessert ],False,-6.889038,107.588028," Foodcourt Sukamulya Jl. Terusan Sukamulya No. 70, Pasteur, Bandung ", Di bawah Rp. 50.000 /orang ,0.0,0.0,0.0,0.0,0.0,0.0,"Senin - Jumat (10:00 - 21:00), Sabtu - Minggu (10:00 - 22:00)",Tunai,yes,yes,yes,no,no,yes,no,yes,yes,no,no
231,1642426716115626,Chickmoms,[ Barat ],False,-6.889038,107.588028," Foodcourt Sukamulya Jl. Terusan Sukamulya No. 70, Pasteur, Bandung ", Di bawah Rp. 50.000 /orang ,0.0,0.0,0.0,0.0,0.0,0.0,"Senin - Jumat (10:00 - 21:00), Sabtu - Minggu (10:00 - 22:00)",Tunai,yes,yes,yes,no,no,yes,no,yes,yes,no,no
232,1642426716768505,Sakeci,[ Indonesia ],False,-6.889038,107.588028," Foodcourt Sukamulya Jl. Terusan Sukamulya No. 70, Pasteur, Bandung ", Di bawah Rp. 50.000 /orang ,0.0,0.0,0.0,0.0,0.0,0.0,"Senin - Jumat (10:00 - 21:00), Sabtu - Minggu (10:00 - 22:00)",Tunai,yes,yes,yes,no,no,yes,no,yes,yes,no,no
233,1642426717399858,Sate Pojok,[ Indonesia ],False,-6.889038,107.588028," Foodcourt Sukamulya Jl. Terusan Sukamulya No. 70, Pasteur, Bandung ", Di bawah Rp. 50.000 /orang ,0.0,0.0,0.0,0.0,0.0,0.0,"Senin - Jumat (10:00 - 21:00), Sabtu - Minggu (10:00 - 22:00)",Tunai,yes,yes,yes,no,no,yes,no,yes,yes,no,no
234,1642426718060259,Baso Tahu Bu Tin Ton,[ Indonesia ],False,-6.889057,107.588154," Foodcourt Sukamulya Jl. Terusan Sukamulya No. 70, Pasteur, Bandung ", Di bawah Rp. 50.000 /orang ,0.0,0.0,0.0,0.0,0.0,0.0,"Senin - Jumat (10:00 - 21:00), Sabtu - Minggu (10:00 - 22:00)",Tunai,yes,yes,yes,no,no,yes,no,yes,yes,no,no
235,1642426718732132,Roti Hidup,[ Toko Roti dan Kue ],False,-6.893906,107.586479," Pasteur Square Jl. Dr. Djunjunan No. 135A, Pasteur, Bandung ", Di bawah Rp. 50.000 /orang ,0.0,0.0,0.0,0.0,0.0,0.0,Senin - Minggu (12:00 - 22:00),Tunai,no,no,yes,no,no,yes,no,no,yes,no,no
236,1642426719405935,Aneka Nasi Mba Ayu,[ Indonesia ],False,-6.889038,107.588028," Foodcourt Sukamulya Jl. Terusan Sukamulya No. 70, Pasteur, Bandung ", Di bawah Rp. 50.000 /orang ,0.0,0.0,0.0,0.0,0.0,0.0,"Senin - Jumat (10:00 - 21:00), Sabtu - Minggu (10:00 - 22:00)",Tunai,yes,yes,yes,no,no,yes,no,yes,yes,no,no
237,164242672010147,Aneka Soto,[ Indonesia ],False,-6.889038,107.588028," Foodcourt Sukamulya Jl. Terusan Sukamulya No. 70, Pasteur, Bandung ", Di bawah Rp. 50.000 /orang ,0.0,0.0,0.0,0.0,0.0,0.0,"Senin - Jumat (10:00 - 21:00), Sabtu - Minggu (10:00 - 22:00)",Tunai,yes,yes,yes,no,no,yes,no,yes,yes,no,no
238,1642426720740931,Kedai Dara,,False,-6.893906,107.586479," Pasteur Square Jl. Dr. Djunjunan No. 135A, Pasteur, Bandung ", Di bawah Rp. 50.000 /orang ,0.0,0.0,0.0,0.0,0.0,0.0,Senin - Minggu (12:00 - 22:00),Tunai,no,no,yes,no,no,yes,no,no,yes,no,no
239,1642426721459631,Dapur Eyang,[ Indonesia ],False,-6.889038,107.588028," Foodcourt Sukamulya Jl. Terusan Sukamulya No. 70, Pasteur, Bandung ", Di bawah Rp. 50.000 /orang ,0.0,0.0,0.0,0.0,0.0,0.0,"Senin - Jumat (10:00 - 21:00), Sabtu - Minggu (10:00 - 22:00)",Tunai,yes,yes,yes,no,no,yes,no,yes,yes,no,no
240,1642426722174525,Lotek Kang Bagus,[ Indonesia ],False,-6.889038,107.588028," Foodcourt Sukamulya Jl. Terusan Sukamulya No. 70, Pasteur, Bandung ", Di bawah Rp. 50.000 /orang ,0.0,0.0,0.0,0.0,0.0,0.0,"Senin - Jumat (10:00 - 21:00), Sabtu - Minggu (10:00 - 22:00)",Tunai,yes,yes,yes,no,no,yes,no,yes,yes,no,no
241,1642426722974336,Aston Iga Bakar & Sop Buntut,[ Indonesia ],False,-6.889057,107.588154," Foodcourt Sukamulya Jl. Terusan Sukamulya No. 70, Pasteur, Bandung ", Di bawah Rp. 50.000 /orang ,0.0,0.0,0.0,0.0,0.0,0.0,"Senin - Jumat (10:00 - 21:00), Sabtu - Minggu (10:00 - 22:00)",Tunai,yes,yes,yes,no,no,yes,no,yes,yes,no,no
242,1642426723571688,Nasi Onderdil,[ Indonesia ],False,-6.893641,107.573234," Jl. Sukaraja No. 277B, Pasteur, Bandung ", Di bawah Rp. 50.000 /orang ,0.0,0.0,0.0,0.0,0.0,0.0,"Senin - Sabtu (10:00 - 18:00), Minggu Tutup",Tunai,no,no,yes,no,no,yes,no,yes,yes,no,no
243,1642426724192511,Warduku,[ Minuman ],False,-6.893906,107.586479," Pasteur Square Jl. Dr. Djunjunan No. 135A, Pasteur, Bandung ", Di bawah Rp. 50.000 /orang ,0.0,0.0,0.0,0.0,0.0,0.0,Senin - Minggu (09:00 - 21:00),Tunai,no,no,yes,no,no,yes,no,no,yes,no,no
244,16424267248507,Portarama Coffee,[ Kafe ],False,-6.893778,107.574015," Jl. Sukaraja II No. 297, Pasteur, Bandung ", Di bawah Rp. 50.000 /orang ,0.0,0.0,0.0,0.0,0.0,0.0,Senin - Minggu (13:00 - 23:00),"Tunai,Debet,Go-pay",yes,no,yes,yes,no,yes,no,yes,yes,no,no
245,1642426725752014,Es Pisang Ijo Ala'din,[ Dessert ],False,-6.89413,107.588087," Pasteur Hyper Point, Lantai Ground Jl. Dr. Djunjunan No. 126 - 128, Pasteur, Bandung ", Di bawah Rp. 50.000 /orang ,0.0,0.0,0.0,0.0,0.0,0.0,not listed,Tunai,no,no,yes,yes,no,yes,no,no,yes,no,no
246,1642426726401034,Nasi Uduk Pasteur Square,[ Indonesia ],False,-6.893906,107.586479," Pasteur Square Jl. Dr. Djunjunan No. 135A, Pasteur, Bandung ", Di bawah Rp. 50.000 /orang ,0.0,0.0,0.0,0.0,0.0,0.0,Senin - Minggu (09:00 - 21:00),Tunai,no,no,yes,no,no,yes,no,no,yes,no,no
247,1642426727067673,Soto Ayam Banyumas Ibu Siti,[ Indonesia ],False,-6.894171,107.584453," Jl. Sukawarna No. 10 (Belakang Mall BTC), Pasteur, Bandung ", Di bawah Rp. 50.000 /orang ,0.0,0.0,0.0,0.0,0.0,0.0,Senin - Minggu (10:00 - 21:00),Tunai,no,no,yes,no,no,yes,no,no,yes,no,no
248,1642426727876711,XXI Cafe - BTC XXI,,False,-6.893051,107.584865," Bandung Trade Center, Lantai 3, Cinema XXI Jl. Dr. Djunjunan No. 143 - 149, Pasteur, Bandung ", Rp. 50.000 - Rp. 100.000 /orang ,0.0,0.0,0.0,0.0,0.0,0.0,not listed,Tunai,not sure,not sure,not sure,not sure,no,yes,no,no,yes,not sure,no
249,1642426728506469,Bubur Ayam TA,[ Indonesia ],False,-6.893906,107.586479," Pasteur Square Jl. Dr. Djunjunan No. 135A, Pasteur, Bandung ", Di bawah Rp. 50.000 /orang ,0.0,0.0,0.0,0.0,0.0,0.0,Senin - Minggu (09:00 - 21:00),Tunai,no,no,yes,no,no,yes,no,no,yes,no,no
250,1642426729197092,Mie Baso Berkah Jaya,[ Indonesia ],False,-6.896327,107.587609," Jl. Dr. Djunjunan Dalam No. 20, Pasteur, Bandung ", Di bawah Rp. 50.000 /orang ,0.0,0.0,0.0,0.0,0.0,0.0,Senin - Minggu (10:00 - 20:00),Tunai,no,no,yes,no,no,yes,no,no,no,no,no
251,1642426729966306,Waroeng Pizza,[ Italia ],False,-6.893906,107.586479," Pasteur Square Jl. Dr. Djunjunan No. 135A, Pasteur, Bandung ", Di bawah Rp. 50.000 /orang ,0.0,0.0,0.0,0.0,0.0,0.0,Senin - Minggu (09:00 - 21:00),Tunai,no,no,yes,no,no,yes,no,no,yes,no,no
252,164242673066341,Champions Juice,[ Minuman ],False,-6.896215,107.587659," Jl. Dr. Djunjunan Dalam No. 20, Pasteur, Bandung ", Di bawah Rp. 50.000 /orang ,0.0,0.0,0.0,0.0,0.0,0.0,Senin - Minggu (09:00 - 19:00),Tunai,no,no,yes,no,no,yes,no,no,no,no,no
253,1642426731299858,Sunrice Chinese Cuisine,[ China ],False,-6.890729,107.57317," Ruko Istana Pasteur Regency, Blok CRA No. 45 Jl. Sukaraja, Gunung Batu, Bandung ", Di bawah Rp. 50.000 /orang ,3.9,4.5,3.0,4.5,3.5,4.0,Senin - Minggu (11:00 - 20:00),Tunai,not sure,yes,not sure,yes,no,yes,not sure,not sure,yes,not sure,no
254,1642426732643226,Kantin Yaqin,[ Indonesia ],False,-6.896168,107.587746," Jl. Dr. Djunjunan Dalam No. 3, Pasteur, Bandung ", Di bawah Rp. 50.000 /orang ,0.0,0.0,0.0,0.0,0.0,0.0,Senin - Minggu (09:00 - 19:00),Tunai,no,no,yes,no,no,yes,no,no,no,no,no
255,164242673335113,Nasi Goreng Indah Rasa,[ Indonesia ],False,-6.896314,107.587776," Jl. Dr. Djunjunan Dalam (Depan SMP Yaqin), Pasteur, Bandung ", Di bawah Rp. 50.000 /orang ,0.0,0.0,0.0,0.0,0.0,0.0,Senin - Minggu (17:00 - 24:00),Tunai,no,no,yes,no,no,yes,no,no,no,no,no
256,1642426733955438,Waroeng Manado,[ Indonesia ],False,-6.900483,107.603192," Jl. Pasteur No. 11A, Cipaganti, Bandung ", Di bawah Rp. 50.000 /orang ,4.4,4.0,4.0,5.0,4.0,5.0,Senin - Minggu (11:00 - 23:00),Tunai,yes,no,yes,no,no,yes,no,yes,yes,no,no
257,1642426735233888,Warung Ibu Mariah,[ Dessert ],False,-6.894213,107.58443," Jl. Sukawarna No. 10 (Belakang Mall BTC), Pasteur, Bandung ", Di bawah Rp. 50.000 /orang ,0.0,0.0,0.0,0.0,0.0,0.0,Senin - Minggu (09:00 - 21:00),Tunai,no,no,yes,no,no,yes,no,no,yes,no,no
258,1642426735988883,Sate Ayam Bang Amat,[ Indonesia ],False,-6.896314,107.587776," Jl. Dr. Djunjunan Dalam (Depan SMP Yaqin), Pasteur, Bandung ", Di bawah Rp. 50.000 /orang ,0.0,0.0,0.0,0.0,0.0,0.0,Senin - Minggu (17:00 - 24:00),Tunai,no,no,yes,no,no,yes,no,no,no,no,no
259,1642426736700555,Thai Tea Bray,[ Minuman ],False,-6.894257,107.585168," Jl. Sukawarna No. 21, Pasteur, Bandung ", Di bawah Rp. 50.000 /orang ,0.0,0.0,0.0,0.0,0.0,0.0,Senin - Minggu (10:00 - 20:00),Tunai,no,no,yes,no,no,yes,no,no,no,no,no
260,1642426737405274,Mie Ayam Mantul,[ Indonesia ],False,-6.894257,107.585168," Jl. Sukawarna No. 21, Pasteur, Bandung ", Di bawah Rp. 50.000 /orang ,0.0,0.0,0.0,0.0,0.0,0.0,Senin - Minggu (09:00 - 20:00),Tunai,no,no,yes,no,no,yes,no,no,no,no,no
261,1642426739059848,Kantin Silvia,[ Indonesia ],False,-6.896327,107.587609," Food Court Griya Pasteur Jl. Dr. Djunjunan No. 115, Pasteur, Bandung ", Di bawah Rp. 50.000 /orang ,0.0,0.0,0.0,0.0,0.0,0.0,Senin - Minggu (09:00 - 21:00),Tunai,no,no,yes,no,no,yes,no,no,yes,no,no
262,1642426739641852,Waroenk Demplon,[ Indonesia ],False,-6.894213,107.58443," Jl. Sukawarna No. 10 (Belakang Mall BTC), Pasteur, Bandung ", Di bawah Rp. 50.000 /orang ,0.0,0.0,0.0,0.0,0.0,0.0,Senin - Minggu (09:00 - 21:00),Tunai,no,no,yes,no,no,yes,no,no,yes,no,no
263,1642426740386517,Mr. Sneck,[ Snack ],False,-6.893929,107.586707," Pasteur Square Jl. Dr. Djunjunan No. 135A, Pasteur, Bandung ", Di bawah Rp. 50.000 /orang ,0.0,0.0,0.0,0.0,0.0,0.0,Senin - Minggu (09:00 - 21:00),Tunai,no,no,yes,no,no,yes,no,no,yes,no,no
264,1642426741240017,Nasgor Mas Sis,[ Indonesia ],False,-6.900389,107.595788," Jl. Dr. Djunjunan No. 17, Pasteur, Bandung ", Di bawah Rp. 50.000 /orang ,0.0,0.0,0.0,0.0,0.0,0.0,Senin - Minggu (10:00 - 21:00),Tunai,no,no,yes,no,no,yes,no,no,yes,no,no
265,1642426741929047,Krenchise Hot Spicy Chicken,,False,-6.896668,107.587312," Jl. Dr. Djunjunan Dalam No. 30F, Pasteur, Bandung ", Di bawah Rp. 50.000 /orang ,0.0,0.0,0.0,0.0,0.0,0.0,Senin - Minggu (10:00 - 21:00),Tunai,no,no,yes,no,no,yes,no,no,no,no,no
266,1642426742594024,Ceker Manin,[ Indonesia ],False,-6.896327,107.587609," Food Court Griya Pasteur Jl. Dr. Djunjunan No. 115, Pasteur, Bandung ", Di bawah Rp. 50.000 /orang ,0.0,0.0,0.0,0.0,0.0,0.0,Senin - Minggu (09:00 - 21:00),Tunai,no,no,yes,no,no,yes,no,no,yes,no,no
267,164242674323773,Gado Gado Komplit,[ Indonesia ],False,-6.900389,107.595788," Jl. Dr. Djunjunan No. 17, Pasteur, Bandung ", Di bawah Rp. 50.000 /orang ,0.0,0.0,0.0,0.0,0.0,0.0,Senin - Minggu (10:00 - 21:00),Tunai,no,no,yes,no,no,yes,no,no,yes,no,no
268,1642426743971431,RM Mang Idjot,[ Indonesia ],False,-6.893692,107.586273," Jl. Dr. Djunjunan No. 139, Pasteur, Bandung ", Di bawah Rp. 50.000 /orang ,0.0,0.0,0.0,0.0,0.0,0.0,Senin - Minggu (09:00 - 22:00),"Tunai,Visa,Master,Debet",no,yes,yes,no,no,yes,no,yes,no,no,no
269,1642426744739776,Baso Solo Baru,[ Indonesia ],False,-6.900389,107.595788," Jl. Dr. Djunjunan No. 17, Pasteur, Bandung ", Di bawah Rp. 50.000 /orang ,0.0,0.0,0.0,0.0,0.0,0.0,Senin - Minggu (10:00 - 21:00),Tunai,no,no,yes,no,no,yes,no,no,yes,no,no
270,16424267454069,Warteg Asri,[ Indonesia ],False,-6.895543,107.587803," Jl. Dr. Djunjunan Dalam No. 2, Pasteur, Bandung ", Di bawah Rp. 50.000 /orang ,0.0,0.0,0.0,0.0,0.0,0.0,Senin - Minggu (09:00 - 21:00),Tunai,no,no,yes,no,no,yes,no,no,no,no,no
271,1642426746292951,Baso Tahu Imam Bonjol,[ Indonesia ],False,-6.896327,107.587609," Food Court Griya Pasteur Jl. Dr. Djunjunan No. 115, Pasteur, Bandung ", Di bawah Rp. 50.000 /orang ,0.0,0.0,0.0,0.0,0.0,0.0,Senin - Minggu (09:00 - 21:00),Tunai,no,no,yes,no,no,yes,no,no,yes,no,no
272,1642426747006759,Sate Tegal Asli Intan Barokah,[ Indonesia ],False,-6.893709,107.5736," Jl. Sukaraja II No. 287, Pasteur, Bandung ", Di bawah Rp. 50.000 /orang ,0.0,0.0,0.0,0.0,0.0,0.0,Senin - Minggu (09:00 - 21:00),Tunai,no,yes,no,no,no,yes,no,no,yes,not sure,not sure
273,1642426747715362,Pempek Bunda,[ Indonesia ],False,-6.900389,107.595788," Jl. Dr. Djunjunan No. 17, Pasteur, Bandung ", Di bawah Rp. 50.000 /orang ,0.0,0.0,0.0,0.0,0.0,0.0,Senin - Minggu (10:00 - 21:00),Tunai,no,no,yes,no,no,yes,no,no,yes,no,no
274,1642426748646538,Njonja Besar,[ Es Krim ],False,-6.900389,107.595788," Jl. Dr. Djunjunan No. 17, Pasteur, Bandung ", Di bawah Rp. 50.000 /orang ,0.0,0.0,0.0,0.0,0.0,0.0,Senin - Minggu (10:00 - 21:00),Tunai,no,no,yes,no,no,yes,no,no,yes,no,no
275,1642426749333169,Bebek Penyet Si Neng,[ Indonesia ],False,-6.896327,107.587609," Food Court Griya Pasteur Jl. Dr. Djunjunan No. 115, Pasteur, Bandung ", Di bawah Rp. 50.000 /orang ,0.0,0.0,0.0,0.0,0.0,0.0,Senin - Minggu (09:00 - 21:00),Tunai,no,no,yes,no,no,yes,no,no,yes,no,no
276,1642426750081112,Ocado Fruit Juice,[ Minuman ],False,-6.900389,107.595788," Jl. Dr. Djunjunan No. 17, Pasteur, Bandung ", Di bawah Rp. 50.000 /orang ,0.0,0.0,0.0,0.0,0.0,0.0,Senin - Minggu (10:00 - 21:00),Tunai,no,no,yes,no,no,yes,no,no,yes,no,no
277,1642426750763051,Sipud Mang Ujang,[ Indonesia ],False,-6.896327,107.587609," Food Court Griya Pasteur Jl. Dr. Djunjunan No. 115, Pasteur, Bandung ", Di bawah Rp. 50.000 /orang ,0.0,0.0,0.0,0.0,0.0,0.0,Senin - Minggu (09:00 - 21:00),Tunai,no,no,yes,no,no,yes,no,no,yes,no,no
278,1642426751468869,Tong Tji Tea Booth,[ Minuman ],False,-6.893347,107.584917," Bandung Trade Center, Lantai 1, Food City Jl. Dr. Djunjunan No. 143 - 149, Pasteur, Bandung ", Di bawah Rp. 50.000 /orang ,3.4,4.0,2.0,5.0,3.0,3.0,Senin - Minggu (10:00 - 21:00),Tunai,no,no,yes,yes,no,yes,no,no,yes,no,no
279,1642426753207338,Orel's Bakery,[ Toko Roti dan Kue ],False,-6.893693,107.5739," Jl. Sukaraja II No. 295, Pasteur, Bandung ", Di bawah Rp. 50.000 /orang ,0.0,0.0,0.0,0.0,0.0,0.0,Senin - Minggu (07:00 - 18:00),Tunai,no,no,no,no,no,not sure,no,no,yes,not sure,not sure
280,1642426753921489,Baso Tahu Mulya Rasa,[ Indonesia ],False,-6.892987,107.585223," Bandung Trade Center, Lantai 1, Food City Jl. Dr. Djunjunan No. 143 - 149, Pasteur, Bandung ", Di bawah Rp. 50.000 /orang ,0.0,0.0,0.0,0.0,0.0,0.0,Senin - Minggu (10:00 - 22:00),Tunai,no,no,no,no,no,yes,no,no,yes,no,no
281,1642426754730849,Batagor Acin,[ Indonesia ],False,-6.895471,107.587991," Food Court Griya Pasteur Jl. Dr. Djunjunan No. 115, Pasteur, Bandung ", Di bawah Rp. 50.000 /orang ,0.0,0.0,0.0,0.0,0.0,0.0,Senin - Minggu (10:00 - 20:00),Tunai,no,no,yes,no,no,yes,no,no,yes,no,no
282,1642426755617203,Bakmie Ayam Pedas BIMA 19,[ Indonesia ],False,-6.892987,107.585223," Bandung Trade Center, Lantai 1, Food City Jl. Dr. Djunjunan No. 143 - 149, Pasteur, Bandung ", Di bawah Rp. 50.000 /orang ,0.0,0.0,0.0,0.0,0.0,0.0,Senin - Minggu (10:00 - 22:00),Tunai,no,no,no,no,no,yes,no,no,yes,no,no
283,1642426756372565,Mie Baso Kancil,[ Indonesia ],False,-6.895471,107.587991," Food Court Griya Pasteur Jl. Dr. Djunjunan No. 115, Pasteur, Bandung ", Di bawah Rp. 50.000 /orang ,3.6,4.0,3.0,4.0,4.0,3.0,Senin - Minggu (10:00 - 20:00),Tunai,no,no,yes,no,no,yes,no,no,yes,no,no
284,1642426758052588,Taiwan Chicken Snack,[ Snack ],False,-6.892987,107.585223," Bandung Trade Center, Lantai 1, Food City Jl. Dr. Djunjunan No. 143 - 149, Pasteur, Bandung ", Di bawah Rp. 50.000 /orang ,0.0,0.0,0.0,0.0,0.0,0.0,Senin - Minggu (10:00 - 22:00),Tunai,no,no,no,no,no,yes,no,no,yes,no,no
285,1642426758755144,Warteg Sinar Mandiri,[ Indonesia ],False,-6.894861,107.588518," Jl. Dr. Djunjunan No. 124C, Pasteur, Bandung ", Di bawah Rp. 50.000 /orang ,0.0,0.0,0.0,0.0,0.0,0.0,Senin - Minggu (09:00 - 22:00),Tunai,no,no,yes,no,no,yes,no,no,no,no,no
286,1642426759630803,Pempek Palembang Nian,[ Indonesia ],False,-6.896327,107.587609," Griya Pasteur Jl. Dr. Djunjunan No. 115, Pasteur, Bandung ", Di bawah Rp. 50.000 /orang ,0.0,0.0,0.0,0.0,0.0,0.0,Senin - Minggu (09:00 - 21:00),Tunai,no,no,yes,no,no,yes,no,no,yes,no,no
287,1642426760659973,RM Cinta Rasa,[ Indonesia ],False,-6.892217,107.582044," Jl. Dr. Djunjunan No. 158, Pasteur, Bandung ", Di bawah Rp. 50.000 /orang ,0.0,0.0,0.0,0.0,0.0,0.0,Senin - Minggu (09:00 - 21:00),Tunai,no,no,yes,no,no,yes,no,no,no,no,no
288,1642426761389384,Dimsum Kalong,[ China ],False,-6.891852,107.580935," Jl. Terusan Dr. Djunjunan No. 1, Pasteur, Bandung ", Di bawah Rp. 50.000 /orang ,0.0,0.0,0.0,0.0,0.0,0.0,Senin - Minggu (11:00 - 23:00),"Tunai,Visa,Master,Debet,Ovo,Dana",yes,no,yes,yes,no,yes,no,yes,yes,no,no
289,1642426762048297,Dedaunan,[ Kafe ],False,-6.891852,107.580935," Jl. Terusan Dr. Djunjunan No. 1, Pasteur, Bandung ", Di bawah Rp. 50.000 /orang ,0.0,0.0,0.0,0.0,0.0,0.0,Senin - Minggu (11:00 - 23:00),"Tunai,Visa,Master,Debet,Ovo,Dana",yes,no,yes,yes,no,yes,no,yes,yes,no,no
290,164242676284745,Scoop & Skoops,[ Es Krim ],False,-6.893347,107.584917," Bandung Trade Center, Lantai LG Jl. Dr. Djunjunan No. 143 - 149, Pasteur, Bandung ", Di bawah Rp. 50.000 /orang ,4.2,4.0,4.0,4.0,5.0,4.0,Senin - Minggu (10:00 - 21:00),"Tunai,Ovo",no,no,no,no,no,yes,no,no,yes,no,no
291,1642426764197546,Kopi Kanopi,[ Kafe ],False,-6.893153,107.585121," Bandung Trade Center, Lantai Lower Ground Jl. Dr. Djunjunan No. 143 - 149, Pasteur, Bandung ", Di bawah Rp. 50.000 /orang ,0.0,0.0,0.0,0.0,0.0,0.0,Senin - Minggu (10:00 - 22:00),Tunai,no,no,yes,yes,no,yes,no,no,yes,no,no
292,1642426765031781,Berkat Bakery & Cake,[ Toko Roti dan Kue ],False,-6.893153,107.585121," Bandung Trade Center, Lantai Ground Jl. Dr. Djunjunan No. 143 - 149, Pasteur, Bandung ", Di bawah Rp. 50.000 /orang ,0.0,0.0,0.0,0.0,0.0,0.0,Senin - Minggu (10:00 - 22:00),Tunai,no,no,no,no,no,yes,no,no,yes,no,no
293,1642426765774565,Nyot Nyot Thai Tea,[ Minuman ],False,-6.893153,107.585121," Bandung Trade Center, Lantai Semi Basement Jl. Dr. Djunjunan No. 143 - 149, Pasteur, Bandung ", Di bawah Rp. 50.000 /orang ,0.0,0.0,0.0,0.0,0.0,0.0,Senin - Minggu (10:00 - 22:00),Tunai,no,no,no,no,no,yes,no,no,yes,no,no
294,1642426766566594,Zem's Etnik,[ Indonesia ],False,-6.894448,107.588," Pasteur Hyper Point, Lantai Ground Jl. Dr. Djunjunan No. 126 - 128, Pasteur, Bandung ", Di bawah Rp. 50.000 /orang ,0.0,0.0,0.0,0.0,0.0,0.0,Senin - Minggu (10:00 - 22:00),Tunai,no,no,no,yes,no,not sure,no,no,no,not sure,not sure
295,1642426767269535,Warung Bandung,[ Indonesia ],False,-6.894072,107.588101," Pasteur Hyper Point, Lantai Ground Jl. Dr. Djunjunan No. 126 - 128, Pasteur, Bandung ", Di bawah Rp. 50.000 /orang ,0.0,0.0,0.0,0.0,0.0,0.0,"Senin - Kamis (10:00 - 22:00), Jumat - Sabtu (10:00 - 23:00), Minggu (10:00 - 22:00)",Tunai,no,no,yes,yes,no,yes,no,no,yes,no,no
296,1642426767956032,Wall's Cornetto,[ Es Krim ],False,-6.894448,107.588," Pasteur Hyper Point, Lantai Ground Jl. Dr. Djunjunan No. 126 - 128, Pasteur, Bandung ", Di bawah Rp. 50.000 /orang ,0.0,0.0,0.0,0.0,0.0,0.0,Senin - Minggu (10:00 - 22:00),Tunai,no,no,no,yes,no,yes,no,no,no,not sure,not sure
297,1642426768593191,Torino Kara'age,[ Jepang ],False,-6.894448,107.588," Pasteur Hyper Point, Lantai Ground Jl. Dr. Djunjunan No. 126 - 128, Pasteur, Bandung ", Di bawah Rp. 50.000 /orang ,0.0,0.0,0.0,0.0,0.0,0.0,Senin - Minggu (10:00 - 22:00),Tunai,no,no,no,no,no,not sure,no,no,yes,not sure,not sure
298,1642426769283497,Teh Tong Tji,[ Minuman ],False,-6.894272,107.587971," Pasteur Hyper Point, Lantai Ground Jl. Dr. Djunjunan No. 126 - 128, Pasteur, Bandung ", Di bawah Rp. 50.000 /orang ,0.0,0.0,0.0,0.0,0.0,0.0,"Senin - Kamis (10:00 - 22:00), Jumat - Sabtu (10:00 - 23:00), Minggu (10:00 - 22:00)",Tunai,no,no,yes,yes,no,yes,no,no,yes,no,no
299,1642426770161932,Tahu Gejrot Pa Deden,[ Indonesia ],False,-6.894072,107.588101," Pasteur Hyper Point, Lantai Ground Jl. Dr. Djunjunan No. 126 - 128, Pasteur, Bandung ", Di bawah Rp. 50.000 /orang ,0.0,0.0,0.0,0.0,0.0,0.0,"Senin - Kamis (10:00 - 22:00), Jumat - Sabtu (10:00 - 23:00), Minggu (10:00 - 22:00)",Tunai,no,no,yes,yes,no,yes,no,no,yes,no,no
300,1642426770840832,Tahu Brintiiik,[ Indonesia ],False,-6.894448,107.5881," Pasteur Hyper Point, Lantai Ground Jl. Dr. Djunjunan No. 126 - 128, Pasteur, Bandung ", Di bawah Rp. 50.000 /orang ,0.0,0.0,0.0,0.0,0.0,0.0,Senin - Minggu (10:00 - 22:00),Tunai,no,no,no,no,no,yes,no,no,yes,not sure,not sure
301,1642426771643922,Surabi Pak Oot,[ Indonesia ],False,-6.894272,107.587971," Pasteur Hyper Point, Lantai Ground Jl. Dr. Djunjunan No. 126 - 128, Pasteur, Bandung ", Di bawah Rp. 50.000 /orang ,0.0,0.0,0.0,0.0,0.0,0.0,"Senin - Kamis (10:00 - 22:00), Jumat - Sabtu (10:00 - 23:00), Minggu (10:00 - 22:00)",Tunai,no,no,yes,yes,no,yes,no,no,yes,no,no
302,1642426772316577,Soup n' Soup,[ Indonesia ],False,-6.89413,107.588087," Pasteur Hyper Point, Lantai Ground Jl. Dr. Djunjunan No. 126 - 128, Pasteur, Bandung ", Di bawah Rp. 50.000 /orang ,0.0,0.0,0.0,0.0,0.0,0.0,Senin - Minggu (10:00 - 22:00),Tunai,no,no,yes,yes,no,not sure,no,no,yes,not sure,not sure
303,1642426773030892,Soto Sulung Khas Madura,[ Indonesia ],False,-6.894272,107.587971," Pasteur Hyper Point, Lantai Ground Jl. Dr. Djunjunan No. 126 - 128, Pasteur, Bandung ", Di bawah Rp. 50.000 /orang ,0.0,0.0,0.0,0.0,0.0,0.0,"Senin - Kamis (10:00 - 22:00), Jumat - Sabtu (10:00 - 23:00), Minggu (10:00 - 22:00)",Tunai,no,no,yes,yes,no,yes,no,no,yes,no,no
304,164242677369749,Cilor Abah,[ Indonesia ],False,-6.89043,107.572061," Jl. Dakota No. 109 (Depan Borma Dakota), Pasteur, Bandung ", Di bawah Rp. 50.000 /orang ,0.0,0.0,0.0,0.0,0.0,0.0,Senin - Minggu (09:00 - 20:00),Tunai,no,no,yes,no,no,yes,no,no,no,no,no
305,164242677441466,Soto Ojolali,[ Indonesia ],False,-6.894272,107.587971," Pasteur Hyper Point, Lantai Ground Jl. Dr. Djunjunan No. 126 - 128, Pasteur, Bandung ", Di bawah Rp. 50.000 /orang ,0.0,0.0,0.0,0.0,0.0,0.0,"Senin - Kamis (10:00 - 22:00), Jumat - Sabtu (10:00 - 23:00), Minggu (10:00 - 22:00)",Tunai,no,no,yes,yes,no,yes,no,no,yes,no,no
306,1642426775108004,Sop N Soto Batavia,[ Indonesia ],False,-6.894448,107.588," Pasteur Hyper Point, Lantai Ground Jl. Dr. Djunjunan No. 126 - 128, Pasteur, Bandung ", Di bawah Rp. 50.000 /orang ,0.0,0.0,0.0,0.0,0.0,0.0,Senin - Minggu (10:00 - 22:00),Tunai,no,no,yes,yes,no,not sure,no,no,yes,not sure,not sure
307,1642426775794382,Traffic Cafe,[ Kafe ],False,-6.900547,107.603148," Jl. Pasteur No. 11A, Cipaganti, Bandung ", Rp. 50.000 - Rp. 100.000 /orang ,3.3,3.5,4.0,3.0,3.0,3.0,"Senin - Kamis (10:00 - 23:00), Jumat - Sabtu (10:00 - 24:00), Minggu (10:00 - 23:00)","Tunai,Visa,Master,Debet",yes,no,yes,yes,no,yes,no,yes,yes,yes,no
308,1642426777234944,Warkop Teh Santy,[ Indonesia ],False,-6.89043,107.572061," Jl. Dakota No. 109 (Depan Borma Dakota), Pasteur, Bandung ", Di bawah Rp. 50.000 /orang ,0.0,0.0,0.0,0.0,0.0,0.0,Senin - Minggu (09:00 - 20:00),Tunai,no,no,yes,no,no,yes,no,no,no,no,no
309,1642426777958783,Sego Sambel Iwak Pe,[ Indonesia ],False,-6.894272,107.587971," Pasteur Hyper Point, Lantai Ground Jl. Dr. Djunjunan No. 126 - 128, Pasteur, Bandung ", Di bawah Rp. 50.000 /orang ,0.0,0.0,0.0,0.0,0.0,0.0,"Senin - Kamis (10:00 - 22:00), Jumat - Sabtu (10:00 - 23:00), Minggu (10:00 - 22:00)",Tunai,no,no,yes,yes,no,yes,no,no,yes,no,no
310,164242677869025,Seblak Booty,[ Indonesia ],False,-6.890899,107.572145," Borma Dakota Jl. Dakota No. 109, Pasteur, Bandung ", Di bawah Rp. 50.000 /orang ,0.0,0.0,0.0,0.0,0.0,0.0,Senin - Minggu (09:00 - 21:00),Tunai,no,no,yes,no,no,yes,no,no,yes,no,no
311,1642426779458748,Sayangan Sosis & Kentang,[ Snack ],False,-6.894272,107.587971," Pasteur Hyper Point, Lantai 1 Jl. Dr. Djunjunan No. 126 - 128, Pasteur, Bandung ", Di bawah Rp. 50.000 /orang ,0.0,0.0,0.0,0.0,0.0,0.0,"Senin - Kamis (10:00 - 22:00), Jumat - Sabtu (10:00 - 23:00), Minggu (10:00 - 22:00)",Tunai,no,no,yes,yes,no,yes,no,no,yes,no,no
312,1642426780171976,Soto Betawi & Sop Iga Khas Jakarta,[ Indonesia ],False,-6.894272,107.587971," Pasteur Hyper Point, Lantai Ground Jl. Dr. Djunjunan No. 126 - 128, Pasteur, Bandung ", Di bawah Rp. 50.000 /orang ,0.0,0.0,0.0,0.0,0.0,0.0,"Senin - Kamis (10:00 - 22:00), Jumat - Sabtu (10:00 - 23:00), Minggu (10:00 - 22:00)",Tunai,no,no,yes,yes,no,yes,no,no,yes,no,no
313,1642426780910907,Saung Kendil,[ Indonesia ],False,-6.89413,107.588087," Pasteur Hyper Point, Lantai Ground Jl. Dr. Djunjunan No. 126 - 128, Pasteur, Bandung ", Di bawah Rp. 50.000 /orang ,0.0,0.0,0.0,0.0,0.0,0.0,"Senin - Kamis (10:00 - 22:00), Jumat - Sabtu (10:00 - 23:00), Minggu (10:00 - 22:00)",Tunai,no,no,yes,yes,no,yes,no,no,yes,no,no
314,1642426781543555,Sate Raos,[ Indonesia ],False,-6.894272,107.587971," Pasteur Hyper Point, Lantai Ground Jl. Dr. Djunjunan No. 126 - 128, Pasteur, Bandung ", Di bawah Rp. 50.000 /orang ,0.0,0.0,0.0,0.0,0.0,0.0,"Senin - Kamis (10:00 - 22:00), Jumat - Sabtu (10:00 - 23:00), Minggu (10:00 - 22:00)",Tunai,no,no,yes,yes,no,yes,no,no,yes,no,no
315,164242678220446,Rumah Kepiting,[ Indonesia ],False,-6.894272,107.587971," Pasteur Hyper Point, Lantai Ground Jl. Dr. Djunjunan No. 126 - 128, Pasteur, Bandung ", Di bawah Rp. 50.000 /orang ,0.0,0.0,0.0,0.0,0.0,0.0,"Senin - Kamis (10:00 - 22:00), Jumat - Sabtu (10:00 - 23:00), Minggu (10:00 - 22:00)",Tunai,no,no,yes,yes,no,yes,no,no,yes,no,no
316,164242678285773,Rumah Ikan,[ Indonesia ],False,-6.894272,107.587971," Pasteur Hyper Point, Lantai Ground Jl. Dr. Djunjunan No. 126 - 128, Pasteur, Bandung ", Di bawah Rp. 50.000 /orang ,0.0,0.0,0.0,0.0,0.0,0.0,"Senin - Kamis (10:00 - 22:00), Jumat - Sabtu (10:00 - 23:00), Minggu (10:00 - 22:00)",Tunai,no,no,yes,yes,no,yes,no,no,yes,no,no
317,1642426783536788,Ronde Jahe Djunjunan,[ Indonesia ],False,-6.894272,107.587971," Pasteur Hyper Point, Lantai Ground Jl. Dr. Djunjunan No. 126 - 128, Pasteur, Bandung ", Di bawah Rp. 50.000 /orang ,0.0,0.0,0.0,0.0,0.0,0.0,Senin - Minggu (10:00 - 22:00),Tunai,no,no,yes,yes,no,yes,no,no,yes,no,no
318,164242678420305,Seblak Bandung 27,[ Indonesia ],False,-6.89043,107.572061," Jl. Dakota No. 109 (Depan Borma Dakota), Pasteur, Bandung ", Di bawah Rp. 50.000 /orang ,0.0,0.0,0.0,0.0,0.0,0.0,Senin - Minggu (09:00 - 20:00),Tunai,no,no,yes,no,no,yes,no,no,no,no,no
319,1642426784857929,Chicken Crumb,[ Barat ],False,-6.893457,107.585003," Bandung Trade Center, Lantai 1, Food City Jl. Dr. Djunjunan No. 143 - 149, Pasteur, Bandung ", Di bawah Rp. 50.000 /orang ,0.0,0.0,0.0,0.0,0.0,0.0,Senin - Minggu (10:00 - 21:00),Tunai,no,no,yes,yes,no,yes,no,no,yes,no,no
320,1642426785572413,Regita Ayam Goreng Tulang Lunak,[ Indonesia ],False,-6.894272,107.587971," Pasteur Hyper Point, Lantai Ground Jl. Dr. Djunjunan No. 126 - 128, Pasteur, Bandung ", Di bawah Rp. 50.000 /orang ,0.0,0.0,0.0,0.0,0.0,0.0,"Senin - Kamis (10:00 - 22:00), Jumat - Sabtu (10:00 - 23:00), Minggu (10:00 - 22:00)",Tunai,no,no,yes,yes,no,yes,no,no,yes,no,no
321,1642426786442721,Bubur Ayam Kang Didi,[ Indonesia ],False,-6.89043,107.572061," Jl. Dakota No. 109 (Depan Borma Dakota), Pasteur, Bandung ", Di bawah Rp. 50.000 /orang ,0.0,0.0,0.0,0.0,0.0,0.0,Senin - Minggu (09:00 - 20:00),Tunai,no,no,yes,no,no,yes,no,no,no,no,no
322,1642426787107598,Pempek Legit,[ Indonesia ],False,-6.894272,107.587971," Pasteur Hyper Point, Lantai Ground Jl. Dr. Djunjunan No. 126 - 128, Pasteur, Bandung ", Di bawah Rp. 50.000 /orang ,0.0,0.0,0.0,0.0,0.0,0.0,Senin - Minggu (10:00 - 22:00),Tunai,no,no,yes,no,no,yes,no,no,yes,not sure,not sure
323,1642426787747216,Cilok Contreng Family,[ Indonesia ],False,-6.890941,107.572148," Jl. Dakota No. 109 (Depan Borma Dakota), Pasteur, Bandung ", Di bawah Rp. 50.000 /orang ,0.0,0.0,0.0,0.0,0.0,0.0,Senin - Minggu (09:00 - 20:00),Tunai,no,no,yes,no,no,yes,no,no,no,no,no
324,1642426788380248,Burgerocks,[ Barat ],False,-6.894113,107.58787," Pasteur Hyper Point, Area Luar Jl. Dr. Djunjunan No. 126 - 128, Pasteur, Bandung ( Alamat Lama: FO Formen, Jl. LLRE Martadinata No. 91, Riau, Bandung ) ", Di bawah Rp. 50.000 /orang ,4.0,4.3,3.7,4.3,3.7,4.0,Senin - Minggu (10:00 - 24:00),Tunai,no,no,yes,yes,no,yes,no,no,yes,no,no
325,1642426789935696,Pa Oyen Sukajadi,[ Indonesia ],False,-6.894272,107.587971," Pasteur Hyper Point, Lantai Ground Jl. Dr. Djunjunan No. 126 - 128, Pasteur, Bandung ", Di bawah Rp. 50.000 /orang ,0.0,0.0,0.0,0.0,0.0,0.0,"Senin - Kamis (10:00 - 22:00), Jumat - Sabtu (10:00 - 23:00), Minggu (10:00 - 22:00)",Tunai,no,no,yes,yes,no,yes,no,no,yes,no,no
326,1642426790648657,Es Krim Cingcau Mantap,[ Indonesia ],False,-6.890353,107.572039," Jl. Dakota No. 109 (Depan Borma Dakota), Pasteur, Bandung ", Di bawah Rp. 50.000 /orang ,0.0,0.0,0.0,0.0,0.0,0.0,Senin - Minggu (09:00 - 20:00),Tunai,no,no,yes,no,no,yes,no,no,no,no,no
327,1642426791341329,Bakmie Parahyangan,[ Indonesia ],False,-6.893457,107.585003," Bandung Trade Center, Lantai 1, Food City Jl. Dr. Djunjunan No. 143 - 149, Pasteur, Bandung ", Di bawah Rp. 50.000 /orang ,0.0,0.0,0.0,0.0,0.0,0.0,Senin - Minggu (10:00 - 21:00),Tunai,no,no,yes,yes,no,yes,no,no,yes,no,no
328,1642426792013229,Mie Kocok Kaki Sapi H. Endan,[ Indonesia ],False,-6.894272,107.587971," Pasteur Hyper Point, Lantai Ground Jl. Dr. Djunjunan No. 126 - 128, Pasteur, Bandung ", Di bawah Rp. 50.000 /orang ,0.0,0.0,0.0,0.0,0.0,0.0,"Senin - Kamis (10:00 - 22:00), Jumat - Sabtu (10:00 - 23:00), Minggu (10:00 - 22:00)",Tunai,no,no,yes,yes,no,yes,no,no,yes,no,no
329,1642426792677589,Lotek Ceria,[ Indonesia ],False,-6.890275,107.572003," Jl. Dakota (Samping Borma Dakota), Pasteur, Bandung ", Di bawah Rp. 50.000 /orang ,0.0,0.0,0.0,0.0,0.0,0.0,Senin - Minggu (08:00 - 13:00),Tunai,no,no,yes,no,no,yes,no,no,yes,no,no
330,1642426793476631,Mie Baso Yamien Orel,[ Indonesia ],False,-6.894072,107.588101," Pasteur Hyper Point, Lantai Ground Jl. Dr. Djunjunan No. 126 - 128, Pasteur, Bandung ", Di bawah Rp. 50.000 /orang ,0.0,0.0,0.0,0.0,0.0,0.0,Senin - Minggu (10:00 - 22:00),Tunai,no,no,yes,no,no,not sure,no,no,yes,not sure,not sure
331,1642426794152102,Ayam Goreng Kalaksana,[ Indonesia ],False,-6.890275,107.572003," Jl. Dakota (Samping Borma Dakota), Pasteur, Bandung ", Di bawah Rp. 50.000 /orang ,0.0,0.0,0.0,0.0,0.0,0.0,Senin - Minggu (11:00 - 20:00),Tunai,no,no,yes,no,no,yes,no,no,yes,no,no
332,1642426794823462,Lotek Katineung,[ Indonesia ],False,-6.894272,107.587971," Pasteur Hyper Point, Lantai Ground Jl. Dr. Djunjunan No. 126 - 128, Pasteur, Bandung ", Di bawah Rp. 50.000 /orang ,0.0,0.0,0.0,0.0,0.0,0.0,"Senin - Kamis (10:00 - 22:00), Jumat - Sabtu (10:00 - 23:00), Minggu (10:00 - 22:00)",Tunai,no,no,yes,yes,no,yes,no,no,yes,no,no
333,164242679547391,RM Ajo Laweh,[ Indonesia ],False,-6.890275,107.572003," Jl. Dakota (Samping Borma Dakota), Pasteur, Bandung ", Di bawah Rp. 50.000 /orang ,0.0,0.0,0.0,0.0,0.0,0.0,Senin - Minggu (08:00 - 20:30),Tunai,no,no,yes,no,no,yes,no,no,yes,no,no
334,1642426796176719,Lontong Kari Ayam Mama Lia,[ Indonesia ],False,-6.894272,107.587971," Pasteur Hyper Point, Lantai Ground Jl. Dr. Djunjunan No. 126 - 128, Pasteur, Bandung ", Di bawah Rp. 50.000 /orang ,0.0,0.0,0.0,0.0,0.0,0.0,"Senin - Kamis (10:00 - 22:00), Jumat - Sabtu (10:00 - 23:00), Minggu (10:00 - 22:00)",Tunai,no,no,yes,yes,no,yes,no,no,yes,no,no
335,1642426796849433,Awug Beras Jawara Bandung,[ Indonesia ],False,-6.890296,107.572088," Jl. Dakota (Seberang Borma Dakota), Pasteur, Bandung ", Di bawah Rp. 50.000 /orang ,0.0,0.0,0.0,0.0,0.0,0.0,Senin - Minggu (09:00 - 20:00),Tunai,no,no,yes,no,no,yes,no,no,no,no,no
336,1642426797572496,L'nice Drink,[ Minuman ],False,-6.894072,107.588101," Pasteur Hyper Point, Lantai Ground Jl. Dr. Djunjunan No. 126 - 128, Pasteur, Bandung ", Di bawah Rp. 50.000 /orang ,0.0,0.0,0.0,0.0,0.0,0.0,"Senin - Kamis (10:00 - 22:00), Jumat - Sabtu (10:00 - 23:00), Minggu (10:00 - 22:00)",Tunai,no,no,yes,yes,no,yes,no,no,yes,no,no
337,1642426798450077,Kue Pancong Pasteur,[ Indonesia ],False,-6.894272,107.587971," Pasteur Hyper Point, Area Luar Jl. Dr. Djunjunan No. 126 - 128, Pasteur, Bandung ", Di bawah Rp. 50.000 /orang ,0.0,0.0,0.0,0.0,0.0,0.0,"Senin - Kamis (10:00 - 22:00), Jumat - Sabtu (10:00 - 23:00), Minggu (10:00 - 22:00)",Tunai,no,no,yes,yes,no,yes,no,no,yes,no,no
338,1642426799235395,Tahu Krispy Tilu Putri,[ Snack ],False,-6.890296,107.572088," Jl. Dakota (Seberang Borma Dakota), Pasteur, Bandung ", Di bawah Rp. 50.000 /orang ,0.0,0.0,0.0,0.0,0.0,0.0,Senin - Minggu (09:00 - 20:00),Tunai,no,no,yes,no,no,yes,no,no,no,no,no
339,1642426800009144,Kedai Kopi,[ Minuman ],False,-6.894272,107.587971," Pasteur Hyper Point, Lantai Ground Jl. Dr. Djunjunan No. 126 - 128, Pasteur, Bandung ", Di bawah Rp. 50.000 /orang ,0.0,0.0,0.0,0.0,0.0,0.0,"Senin - Kamis (10:00 - 22:00), Jumat - Sabtu (10:00 - 23:00), Minggu (10:00 - 22:00)",Tunai,no,no,yes,yes,no,yes,no,no,yes,no,no
340,1642426800827473,Susu Kedelai Sukaraja,[ Minuman ],False,-6.890296,107.572088," Jl. Dakota (Seberang Borma Dakota), Pasteur, Bandung ", Di bawah Rp. 50.000 /orang ,0.0,0.0,0.0,0.0,0.0,0.0,Senin - Minggu (09:00 - 20:00),Tunai,no,no,yes,no,no,yes,no,no,no,no,no
341,1642426801893935,Kedai Geger Nasi Timbel,[ Indonesia ],False,-6.894072,107.588101," Pasteur Hyper Point, Lantai Ground Jl. Dr. Djunjunan No. 126 - 128, Pasteur, Bandung ", Di bawah Rp. 50.000 /orang ,0.0,0.0,0.0,0.0,0.0,0.0,"Senin - Kamis (10:00 - 22:00), Jumat - Sabtu (10:00 - 23:00), Minggu (10:00 - 22:00)",Tunai,no,no,yes,yes,no,yes,no,no,yes,no,no
342,1642426802749321,Jumbo Coffee Bar,[ Minuman ],False,-6.894072,107.588101," Pasteur Hyper Point, Lantai Ground Jl. Dr. Djunjunan No. 126 - 128, Pasteur, Bandung ", Di bawah Rp. 50.000 /orang ,0.0,0.0,0.0,0.0,0.0,0.0,"Senin - Kamis (10:00 - 22:00), Jumat - Sabtu (10:00 - 23:00), Minggu (10:00 - 22:00)",Tunai,no,no,yes,yes,no,yes,no,no,yes,no,no
